Last Scraped,Street,State,Latitude,Longitude,Room Type,Accommodates,Bathrooms,Bedrooms,Monthly Price,Cleaning Fee,Host Age
2017-04-08,"La Latina, Madrid, Comunidad de Madrid 28012, Spain",Comunidad de Madrid,-0.018831933036239267,0.01057614464471649,Private room,-0.609286610075912,4.135891765522813,-0.38162674884839515,-0.08797109903969602,-0.5855823227918767,0.14284447201473516
2017-04-08,"Madrid, Madrid 28004, Spain",Madrid,-0.015154734923402505,0.01088107644894175,Entire home/apt,0.344356945671412,-0.42689989150122265,-0.38162674884839515,-0.08797109903969602,-0.5855823227918767,-1.6771911283109366
2017-05-08,"Neukölln, Berlin, Berlin 12045, Germany",Berlin,2.5824288088158966,1.2250212080508676,Private room,-0.609286610075912,-0.42689989150122265,-0.38162674884839515,-0.08797109903969602,-0.20913290525557998,0.14284447201473516
2017-04-08,"La Latina, Madrid, Comunidad de Madrid 28005, Spain",Comunidad de Madrid,-0.01836905244519,0.010303479573180438,Shared room,-1.086108387949574,1.0940306608401227,-0.38162674884839515,-0.08797109903969602,0.041833373101951156,-1.6771911283109366
2017-03-15,"Santanyí, Balearic Islands 07660, Spain",Balearic Islands,-0.24350708113767078,0.5018547887164069,Entire home/apt,-0.609286610075912,-0.42689989150122265,-0.38162674884839515,0.6386465462016971,-0.16730519219599146,0.14284447201473516
2017-04-08,"Delicias, Madrid, Comunidad de Madrid 28045, Spain",Comunidad de Madrid,-0.02137018075750948,0.01169183629610901,Private room,-0.609286610075912,-0.42689989150122265,-0.38162674884839515,-1.218265213859641,-0.16730519219599146,0.14284447201473516
2017-04-08,"Madrid, Comunidad de Madrid 28007, Spain",Comunidad de Madrid,-0.01681874821019185,0.013675015808545094,Private room,-0.609286610075912,-0.42689989150122265,-0.38162674884839515,-0.08797109903969602,-0.16730519219599146,0.14284447201473516
2017-04-06,"Panthéon, Paris, Île-de-France 75005, France",Île-de-France,1.798897679403273,0.43979043553806557,Entire home/apt,0.344356945671412,-0.42689989150122265,0.7302288293064007,-0.08797109903969602,1.714941895485492,1.3562015388985162
2017-04-08,"Malasaña, Madrid, Comunidad de Madrid 28004, Spain",Comunidad de Madrid,-0.016640476637300873,0.011051871685086052,Private room,-0.609286610075912,-0.42689989150122265,-0.38162674884839515,-0.08797109903969602,-1.0038594533877618,-0.46383406142715544
2017-04-08,"Sol, Madrid, Community of Madrid 28005, Spain",Community of Madrid,-0.017950502899747398,0.010721688741683106,Entire home/apt,0.344356945671412,-0.42689989150122265,-1.493482327003191,-0.08797109903969602,0.8783876342937216,0.14284447201473516
2017-04-08,"Justicia, Madrid, Comunidad de Madrid 28004, Spain",Comunidad de Madrid,-0.01581236682403249,0.011230671922939292,Entire home/apt,0.344356945671412,-0.42689989150122265,-0.38162674884839515,0.9615877218645386,-0.16730519219599146,-0.46383406142715544
2017-04-08,"Madrid, Comunidad de Madrid, Spain",Comunidad de Madrid,-0.00824835123675069,0.012504953013436695,Entire home/apt,0.344356945671412,-0.42689989150122265,-0.38162674884839515,-0.08797109903969602,0.041833373101951156,-1.070512594869046
2017-04-08,"Hispanoamérica, Madrid, Comunidad de Madrid 28016, Spain",Comunidad de Madrid,-0.009513783299550816,0.013038616357882837,Entire home/apt,-0.609286610075912,-0.42689989150122265,-1.493482327003191,-0.08797109903969602,0.4601105036978364,0.14284447201473516
2017-05-09,"Agios Nikolaos, Athina, 104 45, Greece",Unknown,-0.5377207895911427,1.9530033579841357,Entire home/apt,1.2980005014187361,-0.42689989150122265,0.7302288293064007,-1.024500508461936,0.5437659298170134,0.14284447201473516
2017-04-08,"Madrid, Comunidad de Madrid 28004, Spain",Comunidad de Madrid,-0.016352036696193308,0.011378761050265548,Private room,-0.609286610075912,-0.42689989150122265,-0.38162674884839515,-0.08797109903969602,-0.5855823227918767,0.14284447201473516
2017-04-08,"Pacifico, Madrid, Community of Madrid 28007, Spain",Community of Madrid,-0.019648270543082238,0.012936460272109462,Private room,-1.086108387949574,-0.42689989150122265,-0.38162674884839515,-1.3393681547332066,-0.16730519219599146,0.14284447201473516
2017-04-08,"Trafalgar, Madrid, Community of Madrid 28010, Spain",Community of Madrid,-0.014358959300506315,0.011070262714697948,Entire home/apt,2.2516440571660605,1.0940306608401227,1.8420844074611964,7.7917935871336335,0.041833373101951156,1.962880072340407
2017-04-08,"Palacio, Madrid, Comunidad de Madrid 28013, Spain",Comunidad de Madrid,-0.016310468530516608,0.01037144797154762,Private room,-0.609286610075912,1.0940306608401227,-0.38162674884839515,-0.08797109903969602,-0.16730519219599146,-1.070512594869046
2017-04-08,"Almagro, Madrid, Comunidad de Madrid 28010, Spain",Comunidad de Madrid,-0.013888104305360747,0.011484054086120523,Private room,-0.609286610075912,-0.42689989150122265,-0.38162674884839515,-0.08797109903969602,-0.16730519219599146,1.3562015388985162
2017-04-08,"Almagro, Madrid, Comunidad de Madrid 28010, Spain",Comunidad de Madrid,-0.013426639261077533,0.011515568370146584,Entire home/apt,-0.13246483220225003,-0.42689989150122265,-1.493482327003191,-0.08797109903969602,-0.16730519219599146,0.14284447201473516
2017-04-08,"Madrid, Comunidad de Madrid 28019, Spain",Comunidad de Madrid,-0.02180255639396863,0.010112840284315987,Private room,-1.086108387949574,-0.42689989150122265,-0.38162674884839515,-0.08797109903969602,-0.16730519219599146,-0.46383406142715544
2017-04-08,"Madrid, Community of Madrid, Spain",Community of Madrid,-0.01566596836261699,0.010901980910997422,Entire home/apt,0.344356945671412,1.0940306608401227,0.7302288293064007,-0.08797109903969602,0.2927996514594823,-1.6771911283109366
2017-04-08,"La Latina, Madrid, Comunidad de Madrid 28005, Spain",Comunidad de Madrid,-0.01824884155736316,0.010616386473011826,Private room,-1.086108387949574,-0.42689989150122265,-0.38162674884839515,-0.08797109903969602,-0.16730519219599146,-0.46383406142715544
2017-04-08,"La Latina, Madrid, Comunidad de Madrid 28005, Spain",Comunidad de Madrid,-0.01908327818197265,0.010749154625023995,Entire home/apt,-0.609286610075912,-0.42689989150122265,-0.38162674884839515,-0.08797109903969602,-0.16730519219599146,0.14284447201473516
2017-04-08,"Nueva España, Madrid, Community of Madrid 28016, Spain",Community of Madrid,-0.007383203785205963,0.013432603984851198,Private room,-0.609286610075912,0.33356538466945,-0.38162674884839515,-0.41091227470253744,-0.16730519219599146,1.3562015388985162
2017-04-08,"La Latina, Madrid, Community of Madrid 28005, Spain",Community of Madrid,-0.01897259712337907,0.010818318253678832,Entire home/apt,0.344356945671412,-0.42689989150122265,-0.38162674884839515,0.5579112522859868,0.041833373101951156,0.14284447201473516
2017-04-08,"Hortaleza, Madrid, Comunidad de Madrid 28043, Spain",Comunidad de Madrid,-0.006948012708578633,0.01622694394229261,Private room,-1.086108387949574,-0.42689989150122265,-0.38162674884839515,-1.1294563905523596,-0.16730519219599146,-0.46383406142715544
2017-04-08,"Palacio, Madrid, Comunidad de Madrid 28013, Spain",Comunidad de Madrid,-0.01668783646758236,0.01029640366811558,Entire home/apt,0.821178723545074,2.614961213181468,1.8420844074611964,-0.08797109903969602,1.8404250346642574,0.14284447201473516
2017-04-08,"Argüelles, Madrid, Comunidad de Madrid 28008, Spain",Comunidad de Madrid,-0.015676015675332992,0.010277326352249185,Shared room,3.2052876129133843,-0.42689989150122265,-0.38162674884839515,-0.08797109903969602,-0.16730519219599146,-1.070512594869046
2017-05-09,"Roma, Lazio 00197, Italy",Lazio,0.30698135796551373,1.1565496955720855,Entire home/apt,-0.609286610075912,-0.42689989150122265,-0.38162674884839515,-0.08797109903969602,-0.16730519219599146,0.14284447201473516
2017-04-08,"Madrid, Comunidad de Madrid 28010, Spain",Comunidad de Madrid,-0.01364209798642347,0.011266125337427121,Private room,-0.609286610075912,-0.42689989150122265,-0.38162674884839515,-0.7661475679316629,-0.37644375749393405,0.14284447201473516
2017-04-08,"Moratalaz, Madrid, Comunidad de Madrid 28030, Spain",Comunidad de Madrid,-0.020273146973971142,0.015261728714904563,Private room,-1.086108387949574,-0.42689989150122265,-0.38162674884839515,-0.08797109903969602,-0.16730519219599146,-1.070512594869046
2017-04-08,"Madrid, Comunidad de Madrid 28005, Spain",Comunidad de Madrid,-0.02080130568202256,0.010685811444991193,Entire home/apt,0.821178723545074,-0.42689989150122265,-0.38162674884839515,-0.08797109903969602,-0.16730519219599146,-1.070512594869046
2017-04-08,"Justicia, Madrid, Comunidad de Madrid 28004, Spain",Comunidad de Madrid,-0.015088721973640948,0.01109271441374608,Entire home/apt,0.344356945671412,-0.42689989150122265,0.7302288293064007,-0.08797109903969602,0.2927996514594823,-0.46383406142715544
2017-04-08,"Madrid, Comunidad de Madrid 28047, Spain",Comunidad de Madrid,-0.021512483511530192,0.008570817613103649,Private room,-1.086108387949574,-1.1873651676718953,-0.38162674884839515,-0.08797109903969602,-0.16730519219599146,-1.070512594869046
2017-04-08,"La Latina, Madrid, Comunidad de Madrid 28005, Spain",Comunidad de Madrid,-0.01886530275790453,0.010444832009182628,Private room,-0.609286610075912,-0.42689989150122265,-0.38162674884839515,-0.08797109903969602,-0.8365486011494079,-0.46383406142715544
2017-04-08,"Madrid, Comunidad de Madrid, Spain",Comunidad de Madrid,-0.010975181847931241,0.010567707469918893,Private room,-1.086108387949574,1.0940306608401227,-0.38162674884839515,-0.08797109903969602,-0.16730519219599146,0.7495230054566258
2017-04-08,"Madrid, Community of Madrid, Spain",Community of Madrid,-0.015221617635320947,0.013301596335378087,Private room,-0.609286610075912,-0.42689989150122265,-0.38162674884839515,-0.08797109903969602,-0.16730519219599146,-0.46383406142715544
2017-04-08,"Trafalgar, Madrid, Comunidad de Madrid 28010, Spain",Comunidad de Madrid,-0.01332813837465264,0.011033127034015301,Private room,-0.609286610075912,-0.42689989150122265,-0.38162674884839515,-0.08797109903969602,-0.16730519219599146,0.14284447201473516
2017-04-08,"Madrid, Comunidad de Madrid 28005, Spain",Comunidad de Madrid,-0.01956662602394297,0.010530008387380385,Private room,-0.609286610075912,-0.42689989150122265,-0.38162674884839515,-0.08797109903969602,-1.0038594533877618,-1.6771911283109366
2017-04-08,"Madrid, Comunidad de Madrid 28004, Spain",Comunidad de Madrid,-0.015634195835628348,0.01104674452224346,Private room,-0.609286610075912,-0.42689989150122265,-0.38162674884839515,-0.08797109903969602,-0.16730519219599146,-1.070512594869046
2017-04-08,"Castilla, Madrid, Comunidad de Madrid 28036, Spain",Comunidad de Madrid,-0.0050004339073848455,0.01285099121108438,Private room,-0.609286610075912,-0.42689989150122265,-0.38162674884839515,-0.49164756861824777,-0.16730519219599146,-0.46383406142715544
2017-04-08,"Trafalgar, Madrid, Comunidad de Madrid 28010, Spain",Comunidad de Madrid,-0.01393723134080524,0.011116613928871772,Entire home/apt,-0.13246483220225003,1.0940306608401227,0.7302288293064007,2.8184994819258766,-0.16730519219599146,1.3562015388985162
2017-04-08,"Argüelles, Madrid, Comunidad de Madrid 28008, Spain",Comunidad de Madrid,-0.01590358851439343,0.010258532511806038,Shared room,3.2052876129133843,-0.42689989150122265,-0.38162674884839515,-0.08797109903969602,-0.16730519219599146,-1.070512594869046
2017-04-08,"Madrid, Community of Madrid, Spain",Community of Madrid,-0.01461549396403633,0.009893583783888153,Private room,-0.609286610075912,-0.42689989150122265,-0.38162674884839515,-0.08797109903969602,-0.16730519219599146,-1.070512594869046
2017-04-08,"L'Antiga Esquerra de l'Eixample, Barcelona, Catalunya 08021, Spain",Catalunya,0.19288067922549884,0.42523359208807704,Entire home/apt,0.344356945671412,-0.42689989150122265,-0.38162674884839515,-0.08797109903969602,-0.16730519219599146,-1.070512594869046
2017-04-08,"Madrid, Comunidad de Madrid 28010, Spain",Comunidad de Madrid,-0.0133991647041628,0.011347961397727672,Entire home/apt,-0.609286610075912,-0.42689989150122265,-0.38162674884839515,-0.08797109903969602,0.2509719383998938,1.3562015388985162
2017-04-08,"Cuatro Caminos, Madrid, Comunidad de Madrid 28020, Spain",Comunidad de Madrid,-0.009429378299899606,0.01149607775158366,Private room,-1.086108387949574,-0.42689989150122265,-0.38162674884839515,-0.08797109903969602,-0.16730519219599146,-1.070512594869046
2017-04-08,"Malasaña, Madrid, Comunidad de Madrid 28015, Spain",Comunidad de Madrid,-0.015734830982718294,0.010635972671242652,Entire home/apt,-0.609286610075912,-0.42689989150122265,-1.493482327003191,-0.08797109903969602,-0.16730519219599146,-1.070512594869046
2017-04-08,"Nueva España, Madrid, Comunidad de Madrid 28036, Spain",Comunidad de Madrid,-0.00770062597002201,0.01253500837345353,Entire home/apt,-0.13246483220225003,-0.42689989150122265,0.7302288293064007,-0.08797109903969602,0.8783876342937216,0.14284447201473516
2017-04-08,"Hortaleza, Madrid, Comunidad de Madrid 28033, Spain",Comunidad de Madrid,-0.004843148729331218,0.015421884963599725,Private room,-0.609286610075912,-0.42689989150122265,-0.38162674884839515,-0.08797109903969602,-0.16730519219599146,0.14284447201473516
2017-04-08,"La Latina, Madrid, Comunidad de Madrid 28005, Spain",Comunidad de Madrid,-0.018148698550628003,0.010272243785190932,Private room,-0.609286610075912,-0.42689989150122265,-0.38162674884839515,-0.08797109903969602,-0.16730519219599146,0.7495230054566258
2017-04-08,"Justicia, Madrid, Comunidad de Madrid 28004, Spain",Comunidad de Madrid,-0.016256923478602116,0.01142517755464459,Entire home/apt,1.2980005014187361,-0.42689989150122265,0.7302288293064007,-0.08797109903969602,0.2927996514594823,-0.46383406142715544
2017-04-08,"Sol, Madrid, Comunidad de Madrid 28013, Spain",Comunidad de Madrid,-0.017158537332834678,0.01063208121189747,Entire home/apt,-0.609286610075912,-0.42689989150122265,-0.38162674884839515,-0.08797109903969602,-0.5855823227918767,-1.070512594869046
2017-04-08,"Almenara, Madrid, Madrid 28020, Spain",Madrid,-0.006898357023567279,0.011521196168063626,Private room,-0.609286610075912,-0.42689989150122265,-0.38162674884839515,-0.08797109903969602,-0.16730519219599146,0.14284447201473516
2017-04-08,"La Latina, Madrid, Madrid 28005, Spain",Madrid,-0.01850698285469659,0.010322965558866777,Entire home/apt,-0.609286610075912,1.0940306608401227,-0.38162674884839515,-0.08797109903969602,-0.16730519219599146,1.3562015388985162
2017-04-08,"Vicálvaro, Madrid, Madrid 28032, Spain",Madrid,-0.022297988620794244,0.016700700871397207,Entire home/apt,0.821178723545074,-0.42689989150122265,0.7302288293064007,-1.218265213859641,0.4601105036978364,1.3562015388985162
2017-04-08,"Recoletos, Madrid, Comunidad de Madrid 28001, Spain",Comunidad de Madrid,-0.016037874091266304,0.011886805586622935,Entire home/apt,-0.609286610075912,-0.42689989150122265,-1.493482327003191,-0.08797109903969602,-0.5855823227918767,-0.46383406142715544
2017-04-08,"Barajas, Madrid, Comunidad de Madrid 28042, Spain",Comunidad de Madrid,-0.008783678840811274,0.01934239372485587,Private room,-0.609286610075912,1.0940306608401227,-0.38162674884839515,-0.08797109903969602,-0.16730519219599146,-0.46383406142715544
2017-04-08,"Dreta de l'Eixample, Barcelona, Catalunya 08008, Spain",Catalunya,0.1932307070985284,0.426058060853628,Entire home/apt,0.344356945671412,-0.42689989150122265,0.7302288293064007,-0.08797109903969602,-0.16730519219599146,0.7495230054566258
2017-04-08,"Sol, Madrid, Comunidad de Madrid 28013, Spain",Comunidad de Madrid,-0.016970510108493094,0.010846935123386173,Entire home/apt,0.344356945671412,1.0940306608401227,0.7302288293064007,-0.08797109903969602,0.4601105036978364,-1.070512594869046
2017-04-08,"Madrid, Comunidad de Madrid 28005, Spain",Comunidad de Madrid,-0.01824152843549767,0.010391860356510503,Private room,-0.609286610075912,-0.42689989150122265,-0.38162674884839515,-0.08797109903969602,-0.16730519219599146,-0.46383406142715544
2017-04-08,"Barcelona, Catalunya 08001, Spain",Catalunya,0.1901742436422116,0.4265939607055851,Entire home/apt,-0.609286610075912,-0.42689989150122265,-0.38162674884839515,-0.08797109903969602,-0.16730519219599146,-0.46383406142715544
2017-04-08,"Madrid, Comunidad de Madrid 28014, Spain",Comunidad de Madrid,-0.018308196115552865,0.011230173942001702,Private room,-1.086108387949574,0.33356538466945,-0.38162674884839515,-0.08797109903969602,-0.16730519219599146,0.7495230054566258
2017-04-08,"Madrid, Community of Madrid 28003, Spain",Community of Madrid,-0.016265615496759037,0.010683373388095673,Private room,-1.086108387949574,-0.42689989150122265,-0.38162674884839515,-0.08797109903969602,-0.7528931750302308,1.3562015388985162
2017-04-08,"Barcelona, Catalunya, Spain",Catalunya,0.19002041950706455,0.42399346692572215,Entire home/apt,0.344356945671412,1.0940306608401227,0.7302288293064007,-0.08797109903969602,1.9240804607834345,-1.070512594869046
2017-04-06,"République, Paris, Île-de-France 75011, France",Île-de-France,1.8027665570497413,0.4407626526667241,Private room,-0.609286610075912,-0.42689989150122265,-0.38162674884839515,-0.08797109903969602,-0.16730519219599146,1.3562015388985162
2017-04-08,"Fuencarral-el Pardo, Madrid, Community of Madrid 28035, Spain",Community of Madrid,-0.0028372415839229468,0.009423948179112405,Private room,-1.086108387949574,-0.42689989150122265,-0.38162674884839515,-0.7661475679316629,-0.16730519219599146,2.5695586057822974
2017-04-08,"La Latina, Madrid, Comunidad de Madrid 28005, Spain",Comunidad de Madrid,-0.018723132282018145,0.010609115862270627,Entire home/apt,1.2980005014187361,-0.42689989150122265,0.7302288293064007,-0.08797109903969602,1.2966647648896068,-0.46383406142715544
2017-04-08,"Ciudad Jardin, Madrid, Comunidad de Madrid 28002, Spain",Comunidad de Madrid,-0.010537853105222721,0.012790638226317177,Private room,-0.609286610075912,-0.42689989150122265,-0.38162674884839515,-0.08797109903969602,-0.16730519219599146,-1.070512594869046
2017-04-08,"Madrid, Comunidad de Madrid 28006, Spain",Comunidad de Madrid,-0.015024618566035696,0.012914778441202816,Private room,-0.609286610075912,-0.42689989150122265,-0.38162674884839515,-0.08797109903969602,-0.16730519219599146,-1.070512594869046
2017-04-08,"Madrid, 28007, Spain",Unknown,-0.018338708864007795,0.013688962337270844,Private room,-1.086108387949574,1.0940306608401227,-1.493482327003191,-0.08797109903969602,-0.16730519219599146,0.14284447201473516
2017-04-08,"El Raval, Barcelona, Catalunya 08001, Spain",Catalunya,0.18978328784544385,0.4265006330958376,Entire home/apt,-0.609286610075912,-0.42689989150122265,-0.38162674884839515,-0.08797109903969602,0.041833373101951156,-0.46383406142715544
2017-04-08,"Madrid, Comunidad de Madrid 28005, Spain",Comunidad de Madrid,-0.018914323054513755,0.01053832549302611,Entire home/apt,0.821178723545074,-0.42689989150122265,-0.38162674884839515,-0.08797109903969602,0.4601105036978364,-0.46383406142715544
2017-04-08,"Madrid, Comunidad de Madrid 28008, Spain",Comunidad de Madrid,-0.013957122164540049,0.00988831362661546,Entire home/apt,0.344356945671412,-0.42689989150122265,-0.38162674884839515,-0.08797109903969602,-0.7947208880898193,-1.070512594869046
2017-04-08,"Aluche, Madrid, Comunidad de Madrid 28011, Spain",Comunidad de Madrid,-0.01835611073233951,0.00922047494837438,Entire home/apt,-0.609286610075912,-0.42689989150122265,-1.493482327003191,-0.08797109903969602,0.8783876342937216,0.14284447201473516
2017-04-08,"Madrid, Community of Madrid 28017, Spain",Community of Madrid,-0.013241839170473347,0.015349653499930107,Private room,-1.086108387949574,-1.1873651676718953,-0.38162674884839515,-0.08797109903969602,-1.0038594533877618,-1.070512594869046
2017-04-08,"Malasaña, Madrid, Comunidad de Madrid 28015, Spain",Comunidad de Madrid,-0.015354066506393534,0.010665438794258113,Private room,-1.086108387949574,-0.42689989150122265,-0.38162674884839515,-0.08797109903969602,-0.16730519219599146,-0.46383406142715544
2017-04-08,"Argüelles, Madrid, Comunidad de Madrid 28008, Spain",Comunidad de Madrid,-0.014272246481305737,0.009743908970057611,Entire home/apt,0.344356945671412,-0.42689989150122265,-0.38162674884839515,-0.08797109903969602,0.2509719383998938,0.14284447201473516
2017-04-08,"Madrid, Madrid 28037, Spain",Madrid,-0.013189883326307356,0.015919645929909625,Entire home/apt,-0.13246483220225003,1.0940306608401227,0.7302288293064007,-0.08797109903969602,0.041833373101951156,1.3562015388985162
2017-04-08,"Lista, Madrid, Comunidad de Madrid 28006, Spain",Comunidad de Madrid,-0.013969426851172901,0.012929156822840843,Entire home/apt,0.344356945671412,1.0940306608401227,0.7302288293064007,-0.08797109903969602,0.041833373101951156,0.14284447201473516
2017-04-08,"Malasaña, Madrid, Comunidad de Madrid 28004, Spain",Comunidad de Madrid,-0.015442558953320432,0.010944344762710858,Entire home/apt,0.821178723545074,-0.42689989150122265,0.7302288293064007,-0.08797109903969602,0.041833373101951156,0.14284447201473516
2017-04-08,"Guindalera, Madrid, Comunidad de Madrid 28028, Spain",Comunidad de Madrid,-0.013265423144711816,0.013103137754857178,Entire home/apt,0.821178723545074,-0.42689989150122265,0.7302288293064007,0.5579112522859868,0.4601105036978364,-0.46383406142715544
2017-04-08,"Malasaña, Madrid, Community of Madrid 28004, Spain",Community of Madrid,-0.014946544886553316,0.010912931170936929,Entire home/apt,-0.609286610075912,-0.42689989150122265,-0.38162674884839515,0.2349700766231454,1.9240804607834345,1.962880072340407
2017-04-08,"Camp d'en Grassot i Gràcia Nova, Barcelona, Catalunya 08037, Spain",Catalunya,0.19509549304921925,0.4265311888984433,Entire home/apt,0.344356945671412,-0.42689989150122265,-0.38162674884839515,-0.08797109903969602,-0.16730519219599146,-1.070512594869046
2017-04-08,"Madrid, Comunidad de Madrid, Spain",Comunidad de Madrid,-0.014545807733973412,0.012843082603578098,Entire home/apt,-0.609286610075912,-0.42689989150122265,-0.38162674884839515,-0.08797109903969602,-0.37644375749393405,-1.070512594869046
2017-04-08,"Madrid, Comunidad de Madrid 28008, Spain",Comunidad de Madrid,-0.015404029175684187,0.009912650481500801,Entire home/apt,1.2980005014187361,-0.42689989150122265,0.7302288293064007,-0.08797109903969602,0.041833373101951156,-1.070512594869046
2017-04-08,"La Latina, Madrid, Comunidad de Madrid 28012, Spain",Comunidad de Madrid,-0.01871955295758338,0.010791046202310695,Entire home/apt,-0.13246483220225003,-0.42689989150122265,0.7302288293064007,-0.08797109903969602,-0.7947208880898193,-0.46383406142715544
2017-04-08,"Hortaleza, Madrid, Comunidad de Madrid 28033, Spain",Comunidad de Madrid,-0.006488983740050349,0.014404155500961862,Private room,-1.086108387949574,-0.42689989150122265,-0.38162674884839515,-0.08797109903969602,-0.16730519219599146,-1.070512594869046
2017-04-08,"La Nova Esquerra de l'Eixample, Barcelona, Catalunya 08011, Spain",Catalunya,0.19161806537400083,0.42628922575534306,Private room,-0.609286610075912,-0.42689989150122265,-0.38162674884839515,-0.41091227470253744,0.041833373101951156,1.3562015388985162
2017-04-08,"Pacifico, Madrid, Comunidad de Madrid 28007, Spain",Comunidad de Madrid,-0.020171457253705005,0.012482195727415771,Private room,-0.609286610075912,-0.42689989150122265,-0.38162674884839515,-0.08797109903969602,-0.16730519219599146,-1.070512594869046
2017-04-08,"Argüelles, Madrid, Comunidad de Madrid 28008, Spain",Comunidad de Madrid,-0.0161050566510246,0.009601789537814015,Private room,-1.086108387949574,-0.42689989150122265,-0.38162674884839515,-0.08797109903969602,-0.16730519219599146,1.3562015388985162
2017-04-08,"Gaztambide, Madrid, Comunidad de Madrid 28015, Spain",Comunidad de Madrid,-0.01388868674267817,0.010220260290187468,Entire home/apt,-0.609286610075912,-0.42689989150122265,-0.38162674884839515,-0.08797109903969602,-0.37644375749393405,-1.6771911283109366
2017-04-08,"Justicia, Madrid, Comunidad de Madrid 28004, Spain",Comunidad de Madrid,-0.01643719154589445,0.011421883184158821,Entire home/apt,-0.609286610075912,-0.42689989150122265,-0.38162674884839515,-0.08797109903969602,-0.7110654619706422,1.3562015388985162
2017-04-08,"Madrid, Comunidad de Madrid 28008, Spain",Comunidad de Madrid,-0.016202298067587738,0.010112031261203613,Entire home/apt,0.344356945671412,-0.42689989150122265,-0.38162674884839515,-0.08797109903969602,0.041833373101951156,-1.070512594869046
2017-04-08,"Madrid, Comunidad de Madrid 28004, Spain",Comunidad de Madrid,-0.016597226510949893,0.010666057890494114,Private room,-0.609286610075912,-0.42689989150122265,-0.38162674884839515,-0.08797109903969602,-0.16730519219599146,-0.46383406142715544
2017-04-08,"Lista, Madrid, Comunidad de Madrid 28006, Spain",Comunidad de Madrid,-0.014188434085711406,0.012956738119766527,Private room,-0.609286610075912,-0.42689989150122265,-0.38162674884839515,-0.08797109903969602,-0.16730519219599146,-1.070512594869046
2016-05-04,"Boden Way, Oakland, CA 94610, United States",CA,-0.5794972192161413,-8.382976723219992,Entire home/apt,-0.13246483220225003,-0.42689989150122265,-0.38162674884839515,-0.08797109903969602,2.133219026081377,1.3562015388985162
2017-04-08,"Madrid, Comunidad de Madrid 28001, Spain",Comunidad de Madrid,-0.016496408309605304,0.01212154212408069,Entire home/apt,-0.609286610075912,-0.42689989150122265,-0.38162674884839515,-0.08797109903969602,-0.16730519219599146,-0.46383406142715544
2017-04-08,"Delicias, Madrid, Comunidad de Madrid 28045, Spain",Comunidad de Madrid,-0.02104001783026949,0.011452936391168393,Entire home/apt,-0.13246483220225003,-0.42689989150122265,0.7302288293064007,0.3964406644545661,-0.16730519219599146,-0.46383406142715544
2017-04-08,"Trafalgar, Madrid, Comunidad de Madrid 28004, Spain",Comunidad de Madrid,-0.014481267056921229,0.010817870393605366,Entire home/apt,-0.13246483220225003,-0.42689989150122265,-0.38162674884839515,-0.08797109903969602,-0.16730519219599146,-1.070512594869046
2017-04-08,"Sol, Madrid, Comunidad de Madrid 28012, Spain",Comunidad de Madrid,-0.017676498569445885,0.0110154974973872,Entire home/apt,0.344356945671412,-0.42689989150122265,-1.493482327003191,-0.08797109903969602,0.041833373101951156,-1.6771911283109366
2017-04-08,"Madrid, Comunidad de Madrid 28004, Spain",Comunidad de Madrid,-0.01545027531701946,0.010655530986371715,Entire home/apt,-0.609286610075912,-0.42689989150122265,-0.38162674884839515,-0.7564593326617778,-0.16730519219599146,-0.46383406142715544
2017-04-08,"Madrid, Community of Madrid 28016, Spain",Community of Madrid,-0.007355865209048469,0.013211412678249398,Private room,-1.086108387949574,-0.42689989150122265,-0.38162674884839515,-0.8145887442810892,-0.16730519219599146,0.7495230054566258
2017-04-08,"Madrid, Comunidad de Madrid, ES, Madrid 28051, Spain",Madrid,-0.028384472881203483,0.019501006524396697,Entire home/apt,-0.609286610075912,1.0940306608401227,-0.38162674884839515,-0.08797109903969602,-0.37644375749393405,-1.070512594869046
2017-04-08,"Embajadores, Madrid, Comunidad de Madrid 28012, Spain",Comunidad de Madrid,-0.018193803461841268,0.01096892767004661,Entire home/apt,0.344356945671412,0.33356538466945,0.7302288293064007,-0.08797109903969602,0.2509719383998938,0.7495230054566258
2017-04-08,"El Gòtic, Barcelona, Catalunya 08002, Spain",Catalunya,0.19131973375588562,0.4269726698922828,Entire home/apt,-0.609286610075912,-0.42689989150122265,-1.493482327003191,-0.08797109903969602,-0.16730519219599146,-1.070512594869046
2017-04-08,"Madrid, Community of Madrid, Spain",Community of Madrid,-0.022616372430779613,0.018146927660647454,Private room,-1.086108387949574,-0.42689989150122265,-0.38162674884839515,-0.08797109903969602,-0.16730519219599146,-1.6771911283109366
2017-04-08,"Vallehermosa, Madrid, Comunidad de Madrid 28003, Spain",Comunidad de Madrid,-0.01244144634040472,0.0099605232472996,Entire home/apt,-1.086108387949574,-0.42689989150122265,-0.38162674884839515,-0.08797109903969602,-0.16730519219599146,-1.070512594869046
2017-04-08,"Arapiles, Madrid, Comunidad de Madrid 28015, Spain",Comunidad de Madrid,-0.013716806336313326,0.010791165210576657,Private room,-1.086108387949574,1.0940306608401227,-0.38162674884839515,-0.08797109903969602,0.041833373101951156,-1.6771911283109366
2017-04-08,"Madrid, Comunidad de Madrid 28012, Spain",Comunidad de Madrid,-0.018499375434431555,0.010942167973219426,Entire home/apt,0.344356945671412,-0.42689989150122265,-0.38162674884839515,-0.08797109903969602,-0.16730519219599146,0.14284447201473516
2017-04-08,"Palacio, Madrid, Community of Madrid 28011, Spain",Community of Madrid,-0.01782134899659476,0.009660253728601012,Entire home/apt,1.2980005014187361,-0.42689989150122265,0.7302288293064007,-0.08797109903969602,-0.16730519219599146,0.7495230054566258
2017-04-08,"Madrid, Comunidad de Madrid 28012, Spain",Comunidad de Madrid,-0.017747309528533903,0.010921229599416132,Entire home/apt,1.2980005014187361,1.0940306608401227,0.7302288293064007,-0.08797109903969602,0.4601105036978364,0.14284447201473516
2017-04-08,"Sol, Madrid, Comunidad de Madrid 28013, Spain",Comunidad de Madrid,-0.01702206109189261,0.0110732162915255,Entire home/apt,0.344356945671412,-0.42689989150122265,-0.38162674884839515,-0.08797109903969602,0.041833373101951156,-1.070512594869046
2017-04-08,"Madrid, Comunidad de Madrid, Spain",Comunidad de Madrid,-0.014685425893992918,0.012969801181027443,Private room,-1.086108387949574,-0.42689989150122265,-0.38162674884839515,-0.08797109903969602,-0.16730519219599146,0.7495230054566258
2017-04-08,"Madrid, Comunidad de Madrid 28045, Spain",Comunidad de Madrid,-0.020663452666192118,0.011879683483858582,Entire home/apt,-0.609286610075912,-0.42689989150122265,-0.38162674884839515,-0.08797109903969602,-0.37644375749393405,1.3562015388985162
2017-04-08,"Madrid, Comunidad de Madrid 28004, Spain",Comunidad de Madrid,-0.016869171374890423,0.011353076778672906,Entire home/apt,0.344356945671412,-0.42689989150122265,-1.493482327003191,-0.08797109903969602,-0.16730519219599146,-1.070512594869046
2017-04-08,"Sol, Madrid, Comunidad de Madrid 28005, Spain",Comunidad de Madrid,-0.017702838501727932,0.010693571230606738,Entire home/apt,-0.13246483220225003,1.0940306608401227,0.7302288293064007,0.2349700766231454,0.041833373101951156,-0.46383406142715544
2017-04-08,"Sol, Madrid, Community of Madrid 28013, Spain",Community of Madrid,-0.017282752239039367,0.010635219702070979,Entire home/apt,0.344356945671412,-0.42689989150122265,0.7302288293064007,-0.08797109903969602,0.041833373101951156,1.3562015388985162
2017-04-08,"Madrid, Comunidad de Madrid 28005, Spain",Comunidad de Madrid,-0.018904293125635567,0.010097146844201908,Private room,-0.609286610075912,-0.42689989150122265,-0.38162674884839515,-0.08797109903969602,-0.7947208880898193,-1.070512594869046
2017-04-08,"Madrid, Comunidad de Madrid 28011, Spain",Comunidad de Madrid,-0.019109635617579026,0.008681752434900823,Private room,-0.609286610075912,-0.42689989150122265,-0.38162674884839515,-0.08797109903969602,-0.37644375749393405,1.3562015388985162
2017-04-08,"Bellas Vistas, Madrid, Comunidad de Madrid 28039, Spain",Comunidad de Madrid,-0.010426204011253664,0.010602204218254847,Entire home/apt,2.2516440571660605,1.0940306608401227,1.8420844074611964,-0.08797109903969602,-0.16730519219599146,-1.070512594869046
2017-04-08,"Ciudad Lineal, Madrid, Comunidad de Madrid 28043, Spain",Comunidad de Madrid,-0.00837269357810146,0.01428346152476555,Private room,-0.609286610075912,-0.42689989150122265,-0.38162674884839515,-0.08797109903969602,-0.16730519219599146,-1.070512594869046
2017-03-15,"Betlem, Illes Balears 07579, Spain",Illes Balears,-0.16048365015116045,0.5083718465705016,Entire home/apt,2.2516440571660605,1.0940306608401227,2.953939985615992,-0.08797109903969602,-0.16730519219599146,0.7495230054566258
2017-04-08,"Cortes, Madrid, Comunidad de Madrid 28014, Spain",Comunidad de Madrid,-0.018262372540718077,0.011332963764833719,Entire home/apt,1.2980005014187361,1.0940306608401227,0.7302288293064007,1.7043524258890739,1.2966647648896068,0.14284447201473516
2017-04-08,"Almagro, Madrid, Comunidad de Madrid 28010, Spain",Comunidad de Madrid,-0.013145256299650642,0.011274010458500227,Private room,-1.086108387949574,-0.42689989150122265,-0.38162674884839515,-0.08797109903969602,-0.16730519219599146,0.14284447201473516
2017-04-08,"Carabanchel, Madrid, Comunidad de Madrid 28019, Spain",Comunidad de Madrid,-0.02200732459479527,0.009070943546673505,Private room,-1.086108387949574,-0.42689989150122265,-0.38162674884839515,-1.5428210954007966,-0.16730519219599146,0.14284447201473516
2017-04-08,"La Chopera, Madrid, Community of Madrid 28019, Spain",Community of Madrid,-0.021288338364001978,0.01127331894630031,Private room,-0.609286610075912,-0.42689989150122265,-0.38162674884839515,-1.2990005077753513,-0.16730519219599146,1.3562015388985162
2017-04-08,"Madrid, Comunidad de Madrid 28022, Spain",Comunidad de Madrid,-0.010900947467162636,0.01932670593103298,Private room,-0.609286610075912,-0.42689989150122265,-0.38162674884839515,-0.08797109903969602,-0.16730519219599146,-1.070512594869046
2017-04-08,"Madrid, Comunidad de Madrid 28053, Spain",Comunidad de Madrid,-0.022371768939360343,0.013505087380727953,Private room,-1.086108387949574,-0.42689989150122265,-0.38162674884839515,-0.08797109903969602,-0.16730519219599146,-1.070512594869046
2017-04-08,"Madrid, Comunidad de Madrid, Spain",Comunidad de Madrid,-0.023768245384055208,0.006901595677051554,Entire home/apt,0.344356945671412,-0.42689989150122265,0.7302288293064007,-0.08797109903969602,-0.16730519219599146,-1.070512594869046
2017-04-08,"Embajadores, Madrid, Community of Madrid 28014, Spain",Community of Madrid,-0.018533779951249912,0.011254965291349731,Private room,-1.086108387949574,1.0940306608401227,-0.38162674884839515,-0.08797109903969602,-0.16730519219599146,0.14284447201473516
2017-04-08,"Sol, Madrid, Comunidad de Madrid 28012, Spain",Comunidad de Madrid,-0.017357673959040774,0.010960627283289505,Entire home/apt,1.2980005014187361,-0.42689989150122265,0.7302288293064007,-0.08797109903969602,-0.16730519219599146,-1.070512594869046
2017-04-08,"Justicia, Madrid, Comunidad de Madrid 28004, Spain",Comunidad de Madrid,-0.01575607529649762,0.011285344959969077,Entire home/apt,0.344356945671412,-0.42689989150122265,-0.38162674884839515,-0.08797109903969602,0.041833373101951156,0.7495230054566258
2017-04-08,"Palacio, Madrid, Comunidad de Madrid 28013, Spain",Comunidad de Madrid,-0.016629109915514532,0.010501370630259788,Private room,-1.086108387949574,2.614961213181468,-0.38162674884839515,-0.08797109903969602,0.041833373101951156,-1.6771911283109366
2017-04-08,"Madrid, Community of Madrid 28021, Spain",Community of Madrid,-0.031113097235633498,0.011895142166836674,Private room,-0.13246483220225003,0.33356538466945,-0.38162674884839515,-0.08797109903969602,-0.16730519219599146,-0.46383406142715544
2017-04-08,"Madrid, Comunidad de Madrid 28005, Spain",Comunidad de Madrid,-0.018343252214885395,0.009698845345540684,Private room,-0.609286610075912,-0.42689989150122265,-0.38162674884839515,-0.08797109903969602,-0.16730519219599146,-0.46383406142715544
2017-04-08,"Centro, Madrid, Comunidad de Madrid 28008, Spain",Comunidad de Madrid,-0.015348635704708761,0.010340142064398823,Entire home/apt,0.344356945671412,-0.42689989150122265,-0.38162674884839515,-0.08797109903969602,0.8783876342937216,0.14284447201473516
2017-03-15,"Alcúdia, Balearic Islands 07400, Spain",Balearic Islands,-0.142789320892599,0.49097216279732936,Entire home/apt,2.2516440571660605,4.135891765522813,1.8420844074611964,-0.08797109903969602,-0.16730519219599146,0.7495230054566258
2017-04-08,"Nueva España, Madrid, Comunidad de Madrid 28016, Spain",Comunidad de Madrid,-0.008239948327849664,0.012779298664161777,Shared room,0.344356945671412,-0.42689989150122265,-0.38162674884839515,-0.08797109903969602,-0.16730519219599146,-1.070512594869046
2017-04-08,"Sol, Madrid, Madrid 28012, Spain",Madrid,-0.017905423779849793,0.01064237749709783,Private room,-0.609286610075912,-0.42689989150122265,-0.38162674884839515,0.3964406644545661,-0.16730519219599146,1.3562015388985162
2017-04-08,"Embajadores, Madrid, Comunidad de Madrid 28012, Spain",Comunidad de Madrid,-0.01853944413196514,0.011207036119549053,Entire home/apt,0.344356945671412,-0.42689989150122265,-0.38162674884839515,-0.08797109903969602,-0.7947208880898193,0.14284447201473516
2017-05-09,"Wien, Wien 1030, Austria",Wien,1.6583997624767572,1.4339211985139992,Entire home/apt,1.2980005014187361,-0.42689989150122265,1.8420844074611964,1.026175956997107,0.041833373101951156,1.3562015388985162
2017-04-08,"Madrid, Comunidad de Madrid 28012, Spain",Comunidad de Madrid,-0.01766317106799548,0.010785655866056166,Entire home/apt,0.344356945671412,-0.42689989150122265,-0.38162674884839515,-0.08797109903969602,-0.16730519219599146,-1.070512594869046
2017-04-08,"Usera, Madrid, Community of Madrid 28041, Spain",Community of Madrid,-0.025391394967611884,0.01181369427079065,Private room,-0.609286610075912,-0.42689989150122265,-0.38162674884839515,-1.2667063902090672,-0.7947208880898193,0.14284447201473516
2017-04-08,"Palos do Moguer, Madrid, Comunidad de Madrid 28045, Spain",Comunidad de Madrid,-0.019646190577772622,0.01166473930690958,Private room,-0.609286610075912,-0.42689989150122265,-0.38162674884839515,-1.218265213859641,-0.7947208880898193,0.14284447201473516
2017-04-08,"Imperial, Madrid, Comunidad de Madrid 28005, Spain",Comunidad de Madrid,-0.02002928587158856,0.010284236120619815,Entire home/apt,0.821178723545074,-0.42689989150122265,-0.38162674884839515,-0.08797109903969602,-0.2509606183151685,-0.46383406142715544
2017-04-08,"Justicia, Madrid, Comunidad de Madrid 28004, Spain",Comunidad de Madrid,-0.015665399433308934,0.01119288361922893,Entire home/apt,-0.609286610075912,-0.42689989150122265,-0.38162674884839515,-0.08797109903969602,-0.37644375749393405,-1.070512594869046
2017-03-15,"Santanyí, Balearic Islands 07660, Spain",Balearic Islands,-0.2439432371431896,0.5013049530895055,Entire home/apt,1.2980005014187361,-0.42689989150122265,0.7302288293064007,-0.08797109903969602,-0.16730519219599146,0.14284447201473516
2017-04-08,"Dreta de l'Eixample, Barcelona, Catalonia 08007, Spain",Catalonia,0.19209988089970917,0.42636355018624805,Private room,-0.609286610075912,1.0940306608401227,-0.38162674884839515,-0.08797109903969602,-0.16730519219599146,0.7495230054566258
2017-04-08,"Madrid, Comunidad de Madrid 28015, Spain",Comunidad de Madrid,-0.013627514525667553,0.010437280398351933,Private room,-1.086108387949574,-0.42689989150122265,-0.38162674884839515,-0.08797109903969602,-0.16730519219599146,0.14284447201473516
2017-04-08,"Madrid, Comunidad de Madrid 28004, Spain",Comunidad de Madrid,-0.01555723430807964,0.011303391215514772,Private room,-1.086108387949574,-0.42689989150122265,-0.38162674884839515,-0.08797109903969602,-1.0038594533877618,-1.6771911283109366
2017-04-08,"L'Antiga Esquerra de l'Eixample, Barcelona, Catalunya 08021, Spain",Catalunya,0.19298219072056857,0.4252670150194367,Entire home/apt,0.344356945671412,-0.42689989150122265,-0.38162674884839515,-0.08797109903969602,-0.16730519219599146,-1.070512594869046
2017-04-08,"Madrid, Comunidad de Madrid 28025, Spain",Comunidad de Madrid,-0.023463892314796727,0.008452932478727752,Private room,-0.609286610075912,-0.42689989150122265,-0.38162674884839515,-1.3797358016910617,-0.16730519219599146,0.14284447201473516
2017-04-08,"Cortes, Madrid, Madrid 28014, Spain",Madrid,-0.01859262340896136,0.011530713373663916,Entire home/apt,1.2980005014187361,1.0940306608401227,0.7302288293064007,1.4621465441419428,0.7947322081745446,1.962880072340407
2017-04-08,"Sol, Madrid, Comunidad de Madrid 28013, Spain",Comunidad de Madrid,-0.017099117036513175,0.010792900647970404,Private room,-0.609286610075912,2.614961213181468,-0.38162674884839515,-0.08797109903969602,-0.6274100358514653,0.14284447201473516
2017-04-08,"La Latina, Madrid, Community of Madrid 28005, Spain",Community of Madrid,-0.018954879865153366,0.010517105311487033,Private room,-0.609286610075912,-0.42689989150122265,-0.38162674884839515,-0.41091227470253744,0.041833373101951156,0.7495230054566258
2017-04-08,"Cortes, Madrid, Comunidad de Madrid 28014, Spain",Comunidad de Madrid,-0.01854918276018384,0.01158734490864522,Entire home/apt,-0.13246483220225003,-0.42689989150122265,-0.38162674884839515,-0.08797109903969602,0.4601105036978364,0.7495230054566258
2017-04-08,"Cortes, Madrid, Comunidad de Madrid 28012, Spain",Comunidad de Madrid,-0.017719971667969694,0.01113192507079093,Entire home/apt,0.344356945671412,-0.42689989150122265,-0.38162674884839515,0.2349700766231454,0.4601105036978364,1.3562015388985162
2017-04-08,"Villaverde, Madrid, Community of Madrid 28021, Spain",Community of Madrid,-0.03195095309754258,0.010910812219336357,Entire home/apt,0.344356945671412,-0.42689989150122265,-0.38162674884839515,0.0734994887917247,-0.16730519219599146,1.3562015388985162
2017-04-08,"Aluche, Madrid, Comunidad de Madrid 28011, Spain",Comunidad de Madrid,-0.018323258679348215,0.00936986066891431,Entire home/apt,2.2516440571660605,-0.42689989150122265,0.7302288293064007,-0.08797109903969602,-0.16730519219599146,-0.46383406142715544
2017-04-08,"Embajadores, Madrid, Comunidad de Madrid 28012, Spain",Comunidad de Madrid,-0.018867517978103987,0.01135078256599057,Private room,-0.609286610075912,-0.42689989150122265,-0.38162674884839515,-0.24944168687111673,-0.7947208880898193,-0.46383406142715544
2017-04-08,"Madrid, Comunidad de Madrid 28001, Spain",Comunidad de Madrid,-0.01654928504377651,0.01185006101317892,Private room,-0.609286610075912,1.0940306608401227,-0.38162674884839515,-0.08797109903969602,-0.4182714705535226,1.3562015388985162
2017-04-08,"Almagro, Madrid, Comunidad de Madrid 28010, Spain",Comunidad de Madrid,-0.013333990095007004,0.01148135516642899,Entire home/apt,1.2980005014187361,-0.42689989150122265,0.7302288293064007,-0.08797109903969602,-0.37644375749393405,-1.070512594869046
2017-04-08,"Embajadores, Madrid, Comunidad de Madrid 28012, Spain",Comunidad de Madrid,-0.018182756309309975,0.010875818934332215,Shared room,-0.13246483220225003,-1.947830443842568,-0.38162674884839515,-0.08797109903969602,-0.16730519219599146,-1.070512594869046
2017-05-09,"Grand Place, Brussel, Brussel 1000, Belgium",Brussel,2.230328017744327,0.5814436347244353,Private room,-1.086108387949574,-0.42689989150122265,-0.38162674884839515,-1.3797358016910617,-0.16730519219599146,-0.46383406142715544
2017-04-08,"El Viso, Madrid, Comunidad de Madrid 28002, Spain",Comunidad de Madrid,-0.01139450820257741,0.012386954003274464,Entire home/apt,-0.609286610075912,-0.42689989150122265,-1.493482327003191,-0.08797109903969602,-0.37644375749393405,-1.070512594869046
2017-04-08,"Sol, Madrid, Comunidad de Madrid 28013, Spain",Comunidad de Madrid,-0.017213670971820902,0.010946531822957324,Private room,0.344356945671412,1.0940306608401227,-0.38162674884839515,-0.08797109903969602,-0.7947208880898193,0.14284447201473516
2017-04-08,"Almagro, Madrid, Community of Madrid 28010, Spain",Community of Madrid,-0.014049270067864394,0.011864341109587439,Entire home/apt,-0.609286610075912,-0.42689989150122265,-0.38162674884839515,-0.08797109903969602,1.2966647648896068,0.14284447201473516
2017-04-08,"Sol, Madrid, Community of Madrid 28013, Spain",Community of Madrid,-0.01669701554201246,0.010773390824428863,Entire home/apt,0.344356945671412,-0.42689989150122265,0.7302288293064007,-0.08797109903969602,-0.5855823227918767,0.7495230054566258
2017-04-08,"Embajadores, Madrid, Comunidad de Madrid 28012, Spain",Comunidad de Madrid,-0.01926397198798021,0.011587690734540784,Entire home/apt,-0.609286610075912,-0.42689989150122265,-0.38162674884839515,-0.08797109903969602,-0.16730519219599146,0.7495230054566258
2017-04-08,"Madrid, Comunidad de Madrid 28004, Spain",Comunidad de Madrid,-0.016037131844906755,0.011371695176228014,Entire home/apt,-0.13246483220225003,-0.42689989150122265,0.7302288293064007,-0.08797109903969602,-0.5855823227918767,-0.46383406142715544
2017-04-08,"Madrid, Comunidad de Madrid 28013, Spain",Comunidad de Madrid,-0.017633327167417976,0.010487709306878415,Entire home/apt,0.344356945671412,-0.42689989150122265,-0.38162674884839515,-0.08797109903969602,0.041833373101951156,1.3562015388985162
2017-04-08,"La Latina, Madrid, Comunidad de Madrid 28005, Spain",Comunidad de Madrid,-0.018668202197790622,0.010612107984721713,Entire home/apt,0.344356945671412,-0.42689989150122265,-0.38162674884839515,-0.08797109903969602,-0.37644375749393405,-0.46383406142715544
2017-04-06,"Père Lachaise - Ménilmontant, Paris, Île-de-France 75020, France",Île-de-France,1.803080021990137,0.44267907123331335,Entire home/apt,-0.609286610075912,-0.42689989150122265,-0.38162674884839515,0.2349700766231454,-0.5855823227918767,0.14284447201473516
2017-04-08,"Madrid, Comunidad de Madrid 28045, Spain",Comunidad de Madrid,-0.02211118090014571,0.011247219725069224,Private room,-0.609286610075912,-0.42689989150122265,-0.38162674884839515,-0.08797109903969602,-0.7110654619706422,-0.46383406142715544
2017-04-08,"Sol, Madrid, Comunidad de Madrid 28013, Spain",Comunidad de Madrid,-0.016995352311487792,0.011181878003786935,Entire home/apt,0.344356945671412,-0.42689989150122265,-0.38162674884839515,-0.08797109903969602,0.041833373101951156,-1.070512594869046
2017-04-08,"La Latina, Madrid, Madrid 28005, Spain",Madrid,-0.018968490030288887,0.01018277248580864,Private room,-0.609286610075912,-0.42689989150122265,-0.38162674884839515,-0.08797109903969602,-0.16730519219599146,1.3562015388985162
2017-04-08,"La Latina, Madrid, Comunidad de Madrid 28005, Spain",Comunidad de Madrid,-0.01898002863058094,0.010232659644530472,Entire home/apt,-0.609286610075912,-0.42689989150122265,-0.38162674884839515,1.074617133346533,0.041833373101951156,0.14284447201473516
2017-04-08,"Sol, Madrid, Comunidad de Madrid 28013, Spain",Comunidad de Madrid,-0.01737932485029123,0.010725820804686858,Entire home/apt,0.344356945671412,-0.42689989150122265,0.7302288293064007,-0.08797109903969602,0.041833373101951156,-1.070512594869046
2017-04-08,"Recoletos, Madrid, Comunidad de Madrid 28006, Spain",Comunidad de Madrid,-0.016023049612170794,0.012010039553664946,Entire home/apt,0.344356945671412,-0.42689989150122265,-0.38162674884839515,-0.08797109903969602,0.2509719383998938,0.7495230054566258
2017-04-08,"Madrid, Comunidad de Madrid 28020, Spain",Comunidad de Madrid,-0.01038079808748568,0.011183536143713686,Entire home/apt,-0.609286610075912,-0.42689989150122265,-1.493482327003191,-0.08797109903969602,-0.7947208880898193,-0.46383406142715544
2016-04-12,"Milverton Road, Manchester, M14 5PL, United Kingdom",Unknown,2.791992718892087,0.11634396503193789,Private room,-0.609286610075912,0.33356538466945,-0.38162674884839515,-0.08797109903969602,-1.0038594533877618,1.3562015388985162
2017-04-08,"Madrid, Comunidad de Madrid 28014, Spain",Comunidad de Madrid,-0.01797160731885134,0.011409397504022712,Private room,-1.086108387949574,1.0940306608401227,-0.38162674884839515,-0.08797109903969602,0.041833373101951156,-1.070512594869046
2017-04-08,"Justicia, Madrid, Community of Madrid 28004, Spain",Community of Madrid,-0.016058634810634208,0.011236394342617405,Entire home/apt,0.821178723545074,-0.42689989150122265,0.7302288293064007,-0.08797109903969602,0.669249068995779,1.962880072340407
2017-04-08,"Malasaña, Madrid, Comunidad de Madrid 28015, Spain",Comunidad de Madrid,-0.014742707121505232,0.010771655403004558,Private room,-0.609286610075912,-0.42689989150122265,-0.38162674884839515,-0.08797109903969602,-0.16730519219599146,-0.46383406142715544
2017-04-08,"Madrid, Comunidad de Madrid 28013, Spain",Comunidad de Madrid,-0.017846151415326597,0.010462792877781867,Private room,-0.609286610075912,-0.42689989150122265,-0.38162674884839515,-0.24944168687111673,-0.7947208880898193,-1.070512594869046
2017-04-08,"La Latina, Madrid, Comunidad de Madrid 28005, Spain",Comunidad de Madrid,-0.01889164929127752,0.010291344392299165,Entire home/apt,0.344356945671412,-0.42689989150122265,-0.38162674884839515,-0.08797109903969602,-1.0038594533877618,-1.070512594869046
2017-04-08,"Madrid, Comunidad de Madrid 28001, Spain",Comunidad de Madrid,-0.015181186315719023,0.012698659326188222,Private room,-0.609286610075912,2.614961213181468,-0.38162674884839515,-0.08797109903969602,-0.16730519219599146,-0.46383406142715544
2017-04-08,"Sol, Madrid, Comunidad de Madrid 28012, Spain",Comunidad de Madrid,-0.017646725018334804,0.010781624148895313,Private room,-0.609286610075912,-0.42689989150122265,-0.38162674884839515,-0.08797109903969602,-0.16730519219599146,-1.070512594869046
2017-04-08,"Malasaña, Madrid, Comunidad de Madrid 28004, Spain",Comunidad de Madrid,-0.01599377767563954,0.01089345009188783,Private room,-0.609286610075912,-0.42689989150122265,-0.38162674884839515,-0.08797109903969602,-0.16730519219599146,-0.46383406142715544
2017-04-08,"Madrid, Comunidad de Madrid 28013, Spain",Comunidad de Madrid,-0.016840785656807054,0.011157623841335323,Entire home/apt,-0.13246483220225003,-0.42689989150122265,-0.38162674884839515,-0.08797109903969602,0.669249068995779,0.14284447201473516
2017-04-08,"Acacias, Madrid, Comunidad de Madrid 28005, Spain",Comunidad de Madrid,-0.02022958356104581,0.010917166318074416,Shared room,-0.609286610075912,-0.42689989150122265,-0.38162674884839515,-0.8953240381967995,-0.16730519219599146,1.3562015388985162
2017-04-08,"Madrid, Comunidad de Madrid 28004, Spain",Comunidad de Madrid,-0.015385588762853824,0.011198847730320071,Private room,-0.609286610075912,-0.42689989150122265,-0.38162674884839515,-0.08797109903969602,-0.16730519219599146,0.14284447201473516
2017-04-08,"Sol, Madrid, Community of Madrid 28013, Spain",Community of Madrid,-0.017712640745943583,0.01068627374764868,Entire home/apt,0.344356945671412,-0.42689989150122265,-0.38162674884839515,0.8808524279488282,0.4601105036978364,1.3562015388985162
2017-04-08,"Imperial, Madrid, Comunidad de Madrid 28005, Spain",Comunidad de Madrid,-0.018266168753343654,0.009873832061063566,Entire home/apt,0.344356945671412,-0.42689989150122265,-0.38162674884839515,-0.08797109903969602,-0.16730519219599146,-1.070512594869046
2017-04-08,"Argüelles, Madrid, Comunidad de Madrid 28008, Spain",Comunidad de Madrid,-0.014848862033567464,0.009769704217871359,Private room,-0.609286610075912,-1.947830443842568,-0.38162674884839515,-0.08797109903969602,-0.16730519219599146,-1.070512594869046
2017-04-08,"Madrid, Comunidad de Madrid 28006, Spain",Comunidad de Madrid,-0.0144780962307483,0.012905185347055976,Entire home/apt,1.7748222792923982,-0.42689989150122265,1.8420844074611964,-0.08797109903969602,0.4601105036978364,-0.46383406142715544
2017-04-08,"Palacio, Madrid, Comunidad de Madrid 28013, Spain",Comunidad de Madrid,-0.017757211039533528,0.010347596230936599,Entire home/apt,1.2980005014187361,1.0940306608401227,0.7302288293064007,2.212984777558049,2.9697732872731475,1.3562015388985162
2017-04-08,"Carabanchel, Madrid, Comunidad de Madrid 28019, Spain",Comunidad de Madrid,-0.021756292583886772,0.009854589838734084,Private room,-0.609286610075912,-0.42689989150122265,-0.38162674884839515,-0.8953240381967995,-0.16730519219599146,-0.46383406142715544
2017-04-08,"Sol, Madrid, Comunidad de Madrid 28012, Spain",Comunidad de Madrid,-0.017531869542789246,0.010797803471399659,Entire home/apt,0.344356945671412,-0.42689989150122265,-0.38162674884839515,-0.08797109903969602,-0.16730519219599146,0.14284447201473516
2017-04-08,"Legazpi, Madrid, Comunidad de Madrid 28045, Spain",Comunidad de Madrid,-0.02306923955816246,0.01197681044141624,Entire home/apt,1.2980005014187361,1.0940306608401227,0.7302288293064007,-0.08797109903969602,0.8783876342937216,0.14284447201473516
2017-04-08,"Arapiles, Madrid, Community of Madrid 28015, Spain",Community of Madrid,-0.014528376355727806,0.010618959240390202,Entire home/apt,-0.609286610075912,-0.42689989150122265,-0.38162674884839515,-0.08797109903969602,-0.16730519219599146,0.7495230054566258
2017-04-08,"Embajadores, Madrid, Comunidad de Madrid 28012, Spain",Comunidad de Madrid,-0.018923243840319046,0.011142386455437888,Entire home/apt,0.344356945671412,-0.42689989150122265,-0.38162674884839515,-0.08797109903969602,-0.37644375749393405,-0.46383406142715544
2017-04-08,"Argüelles, Madrid, Comunidad de Madrid 28008, Spain",Comunidad de Madrid,-0.014104849560774586,0.009515239252761654,Private room,-1.086108387949574,-0.42689989150122265,-0.38162674884839515,-1.0567946260282202,-0.7947208880898193,-0.46383406142715544
2017-04-08,"Cortes, Madrid, Community of Madrid 28014, Spain",Community of Madrid,-0.018120574791638103,0.011425642176539191,Entire home/apt,0.344356945671412,-0.42689989150122265,-0.38162674884839515,-0.08797109903969602,-0.16730519219599146,1.3562015388985162
2017-04-08,"Fuencarral-el Pardo, Madrid, Comunidad de Madrid 28029, Spain",Comunidad de Madrid,-0.004221440402956574,0.010263443196729533,Entire home/apt,0.344356945671412,-0.42689989150122265,0.7302288293064007,-0.08797109903969602,-0.16730519219599146,0.7495230054566258
2017-04-08,"Madrid, Comunidad de Madrid 28026, Spain",Comunidad de Madrid,-0.02426948005322479,0.0100764667329635,Private room,-0.609286610075912,-0.42689989150122265,-0.38162674884839515,-0.08797109903969602,-0.16730519219599146,-1.070512594869046
2017-04-08,"Embajadores, Madrid, Comunidad de Madrid 28012, Spain",Comunidad de Madrid,-0.01863392555995667,0.011012748847904473,Entire home/apt,-0.609286610075912,-0.42689989150122265,-0.38162674884839515,-0.9437652145462258,-0.5855823227918767,-0.46383406142715544
2017-04-08,"Moratalaz, Madrid, Community of Madrid 28030, Spain",Community of Madrid,-0.02102140378805367,0.015401360992935246,Shared room,-1.086108387949574,-0.42689989150122265,-0.38162674884839515,-0.08797109903969602,-0.16730519219599146,0.7495230054566258
2017-04-08,"Madrid, Comunidad de Madrid 28012, Spain",Comunidad de Madrid,-0.017802814806998968,0.010971404314028087,Entire home/apt,6.066218280155357,7.177752870205504,9.625073454544767,-0.08797109903969602,0.2509719383998938,-1.070512594869046
2017-04-08,"Madrid, Comunidad de Madrid 28015, Spain",Comunidad de Madrid,-0.01619409825104449,0.010837794865199774,Entire home/apt,1.2980005014187361,-0.42689989150122265,-0.38162674884839515,-0.08797109903969602,-0.16730519219599146,-1.070512594869046
2017-02-18,"Park Street, Clongriffin, Dublin D13 VY66, Ireland",Dublin,2.7809797799813616,-0.16289361515962875,Private room,-0.609286610075912,0.33356538466945,-0.38162674884839515,-0.08797109903969602,-0.16730519219599146,1.962880072340407
2017-04-08,"Madrid, Comunidad de Madrid 28012, Spain",Comunidad de Madrid,-0.01833706565154751,0.011029286277454111,Private room,-0.609286610075912,-0.42689989150122265,-0.38162674884839515,-0.08797109903969602,-0.16730519219599146,-1.070512594869046
2017-04-08,"Cortes, Madrid, Community of Madrid 28014, Spain",Community of Madrid,-0.018228996498438576,0.011599046517701836,Entire home/apt,1.2980005014187361,-0.42689989150122265,0.7302288293064007,-0.08797109903969602,0.041833373101951156,1.3562015388985162
2017-05-03,"Hollywood, Los Angeles, CA 90046, United States",CA,-1.3787363590030572,-8.106853692277614,Entire home/apt,0.821178723545074,1.0940306608401227,0.7302288293064007,-0.08797109903969602,0.2509719383998938,0.14284447201473516
2017-04-08,"Moratalaz, Madrid, Community of Madrid 28030, Spain",Community of Madrid,-0.019523109025910857,0.014468358820454774,Entire home/apt,2.2516440571660605,1.0940306608401227,1.8420844074611964,-0.08797109903969602,0.8783876342937216,1.3562015388985162
2017-04-08,"Berruguete, Madrid, Comunidad de Madrid 28039, Spain",Comunidad de Madrid,-0.008036633008858585,0.010533666437511024,Private room,-0.609286610075912,-0.42689989150122265,-0.38162674884839515,-0.08797109903969602,-0.16730519219599146,-0.46383406142715544
2017-04-08,"Malasaña, Madrid, Comunidad de Madrid 28004, Spain",Comunidad de Madrid,-0.014918218382334713,0.01095941035492238,Entire home/apt,-0.13246483220225003,-0.42689989150122265,0.7302288293064007,0.2349700766231454,0.041833373101951156,0.7495230054566258
2017-03-15,"Balearic Islands, Balearic Islands, Spain",Balearic Islands,-0.15476861479816306,0.4811800352300514,Entire home/apt,1.2980005014187361,1.0940306608401227,1.8420844074611964,-0.08797109903969602,-0.16730519219599146,0.7495230054566258
2017-04-08,"Madrid, Comunidad de Madrid 28005, Spain",Comunidad de Madrid,-0.018326928237726147,0.01010892920598934,Entire home/apt,0.344356945671412,1.0940306608401227,0.7302288293064007,-0.08797109903969602,-0.16730519219599146,-1.070512594869046
2017-04-08,"Madrid, Comunidad de Madrid 28003, Spain",Comunidad de Madrid,-0.011452147463181237,0.01028877621216979,Entire home/apt,0.344356945671412,1.0940306608401227,0.7302288293064007,-0.08797109903969602,-0.16730519219599146,-1.070512594869046
2017-04-08,"Villa de Vallecas, Madrid, Comunidad de Madrid 28051, Spain",Comunidad de Madrid,-0.029650030406221422,0.018669927302715883,Entire home/apt,-0.609286610075912,-0.42689989150122265,-1.493482327003191,-0.08797109903969602,-0.16730519219599146,-0.46383406142715544
2017-04-08,"Madrid, Community of Madrid, Spain",Community of Madrid,-0.015121071828070654,0.013356983467847599,Private room,-1.086108387949574,-0.42689989150122265,-0.38162674884839515,-0.08797109903969602,-0.16730519219599146,-0.46383406142715544
2017-04-08,"Madrid, Comunidad de Madrid 28009, Spain",Comunidad de Madrid,-0.017722923970200002,0.012959973423821417,Private room,-0.609286610075912,-0.42689989150122265,-0.38162674884839515,-0.08797109903969602,-0.16730519219599146,0.7495230054566258
2017-04-08,"Palacio, Madrid, Comunidad de Madrid 28013, Spain",Comunidad de Madrid,-0.016394410821846662,0.010428480734158243,Entire home/apt,-0.609286610075912,-0.42689989150122265,-1.493482327003191,-0.08797109903969602,-0.16730519219599146,-1.070512594869046
2017-04-08,"Madrid, Comunidad de Madrid 28004, Spain",Comunidad de Madrid,-0.016696716145347176,0.011299751115093425,Entire home/apt,-0.609286610075912,-0.42689989150122265,-0.38162674884839515,-0.08797109903969602,-0.37644375749393405,-1.070512594869046
2017-04-08,"Madrid, Comunidad de Madrid 28045, Spain",Comunidad de Madrid,-0.022888475106254823,0.011521831881229752,Private room,-1.086108387949574,-0.42689989150122265,-0.38162674884839515,-0.08797109903969602,-0.16730519219599146,-1.070512594869046
2017-04-08,"Goya, Madrid, Comunidad de Madrid 28001, Spain",Comunidad de Madrid,-0.014905850861975064,0.012800467444550942,Entire home/apt,-0.609286610075912,-0.42689989150122265,-0.38162674884839515,-0.08797109903969602,0.2509719383998938,0.14284447201473516
2017-04-08,"Madrid, Comunidad de Madrid 28012, Spain",Comunidad de Madrid,-0.018602999845034048,0.011491019582409445,Entire home/apt,2.2516440571660605,0.33356538466945,1.8420844074611964,-0.08797109903969602,2.133219026081377,2.5695586057822974
2017-04-08,"Nueva España, Madrid, Comunidad de Madrid 28016, Spain",Comunidad de Madrid,-0.00824227913657623,0.0124837196089676,Entire home/apt,-0.13246483220225003,-0.42689989150122265,-0.38162674884839515,-0.08797109903969602,0.4601105036978364,0.7495230054566258
2017-04-08,"Aluche, Madrid, Madrid 28011, Spain",Madrid,-0.018882861273128014,0.009465295471452246,Private room,2.2516440571660605,1.0940306608401227,-0.38162674884839515,-1.2747799196006382,-0.7110654619706422,1.962880072340407
2017-04-08,"Ciudad Lineal, Madrid, Madrid 28017, Spain",Madrid,-0.01562349541085201,0.015406098976909673,Entire home/apt,1.2980005014187361,1.0940306608401227,0.7302288293064007,0.6273436050534977,-0.37644375749393405,1.3562015388985162
2017-04-08,"Sol, Madrid, Comunidad de Madrid 28012, Spain",Comunidad de Madrid,-0.017437808319930068,0.010777812085779444,Entire home/apt,0.344356945671412,-0.42689989150122265,-0.38162674884839515,-0.08797109903969602,-0.7947208880898193,-0.46383406142715544
2017-04-08,"Villa de Vallecas, Madrid, Comunidad de Madrid 28051, Spain",Comunidad de Madrid,-0.02961511581161319,0.018650775587674317,Entire home/apt,0.344356945671412,-0.42689989150122265,-1.493482327003191,-0.08797109903969602,-0.16730519219599146,-1.070512594869046
2017-04-08,"Goya, Madrid, Comunidad de Madrid 28009, Spain",Comunidad de Madrid,-0.016096772908208355,0.012774894218306283,Entire home/apt,-0.609286610075912,1.0940306608401227,0.7302288293064007,-0.08797109903969602,2.9697732872731475,-1.070512594869046
2017-04-08,"Madrid, Comunidad de Madrid, Spain",Comunidad de Madrid,-0.015035970793770309,0.014889560000167494,Private room,-0.609286610075912,-0.42689989150122265,-0.38162674884839515,-1.0567946260282202,-0.16730519219599146,-0.46383406142715544
2017-04-08,"Palacio, Madrid, Comunidad de Madrid 28013, Spain",Comunidad de Madrid,-0.016383624789553748,0.010398172024564546,Entire home/apt,-0.13246483220225003,-0.42689989150122265,-0.38162674884839515,-0.08797109903969602,0.041833373101951156,-1.070512594869046
2017-04-08,"Carabanchel, Madrid, Comunidad de Madrid 28019, Spain",Comunidad de Madrid,-0.02185641061842453,0.009741528120392275,Private room,-1.086108387949574,-0.42689989150122265,-0.38162674884839515,-0.08797109903969602,-0.16730519219599146,-1.070512594869046
2017-04-08,"Madrid, Community of Madrid 28004, Spain",Community of Madrid,-0.015551812548635621,0.01106413173703904,Entire home/apt,-1.086108387949574,-0.42689989150122265,-0.38162674884839515,-0.08797109903969602,-0.5855823227918767,-1.070512594869046
2017-04-08,"Madrid, Comunidad de Madrid 28005, Spain",Comunidad de Madrid,-0.019355685833121954,0.010688721386452637,Private room,-0.609286610075912,-0.42689989150122265,-0.38162674884839515,-0.08797109903969602,-1.0038594533877618,-1.070512594869046
2017-02-18,"Killarney Avenue, Dublin, Dublin, Ireland",Dublin,2.7699478738775145,-0.16923763645251996,Private room,-1.086108387949574,-0.42689989150122265,-0.38162674884839515,-0.08797109903969602,-0.5855823227918767,-0.46383406142715544
2017-04-07,"Vancouver, BC V6Z, Canada",BC,1.8923015520440962,-8.445032191385993,Entire home/apt,-0.609286610075912,-0.42689989150122265,-0.38162674884839515,-0.08797109903969602,0.4601105036978364,1.962880072340407
2017-04-08,"Malasaña, Madrid, Comunidad de Madrid 28015, Spain",Comunidad de Madrid,-0.016114252169008306,0.010666629649612873,Private room,-0.609286610075912,-0.42689989150122265,-0.38162674884839515,-0.08797109903969602,-0.16730519219599146,-0.46383406142715544
2017-04-08,"Ciudad Lineal, Madrid, Madrid 28017, Spain",Madrid,-0.013857172165038957,0.015187767640008874,Private room,-1.086108387949574,-1.947830443842568,-0.38162674884839515,-0.97605933211251,-0.16730519219599146,1.962880072340407
2017-04-08,"Trafalgar, Madrid, Comunidad de Madrid 28010, Spain",Comunidad de Madrid,-0.014711864429266412,0.011106879125950757,Entire home/apt,-0.13246483220225003,-0.42689989150122265,-0.38162674884839515,-0.08797109903969602,0.041833373101951156,-0.46383406142715544
2017-04-08,"Madrid, Community of Madrid, Spain",Community of Madrid,-0.018699623670434647,0.010608977974498165,Private room,-0.609286610075912,-0.42689989150122265,-0.38162674884839515,-0.08797109903969602,-1.0038594533877618,-0.46383406142715544
2017-04-08,"Cortes, Madrid, Community of Madrid 28012, Spain",Community of Madrid,-0.018239162078152644,0.011343044790088836,Entire home/apt,-0.13246483220225003,-0.42689989150122265,0.7302288293064007,-0.08797109903969602,0.2509719383998938,0.7495230054566258
2017-04-08,"Malasaña, Madrid, Comunidad de Madrid 28004, Spain",Comunidad de Madrid,-0.015894155930419363,0.011129270352157862,Private room,-0.609286610075912,-0.42689989150122265,-0.38162674884839515,-0.08797109903969602,-0.5855823227918767,0.14284447201473516
2017-04-08,"Trafalgar, Madrid, Comunidad de Madrid 28010, Spain",Comunidad de Madrid,-0.01424086404924014,0.011180203797234108,Private room,-0.609286610075912,1.0940306608401227,-0.38162674884839515,-0.7338534503653789,-1.0038594533877618,-0.46383406142715544
2017-04-08,"Goya, Madrid, Madrid 28001, Spain",Madrid,-0.01573403927797956,0.01265798460463749,Entire home/apt,0.344356945671412,-0.42689989150122265,0.7302288293064007,-0.08797109903969602,-0.16730519219599146,1.3562015388985162
2017-04-08,"Sol, Madrid, Comunidad de Madrid 28013, Spain",Comunidad de Madrid,-0.01691679815640355,0.01119224440780217,Entire home/apt,0.821178723545074,-0.42689989150122265,-0.38162674884839515,-0.08797109903969602,0.041833373101951156,-1.070512594869046
2017-04-08,"Madrid, Comunidad de Madrid 28027, Spain",Comunidad de Madrid,-0.01406809569462254,0.014615821445861894,Entire home/apt,-0.13246483220225003,-0.42689989150122265,-0.38162674884839515,-0.08797109903969602,-0.5855823227918767,-0.46383406142715544
2017-04-08,"Justicia, Madrid, Comunidad de Madrid 28004, Spain",Comunidad de Madrid,-0.016439596144401263,0.011459381304217689,Entire home/apt,-1.086108387949574,-0.42689989150122265,-0.38162674884839515,-0.08797109903969602,-0.16730519219599146,-1.6771911283109366
2017-04-08,"Madrid, Comunidad de Madrid 28028, Spain",Comunidad de Madrid,-0.013486610828017229,0.01301687649363935,Private room,-1.086108387949574,-0.42689989150122265,-0.38162674884839515,-0.08797109903969602,-0.16730519219599146,-1.6771911283109366
2017-04-08,"Malasaña, Madrid, Comunidad de Madrid 28013, Spain",Comunidad de Madrid,-0.01629581089762452,0.010687223717777675,Entire home/apt,0.344356945671412,-0.42689989150122265,-0.38162674884839515,-0.08797109903969602,2.0077358869026116,1.3562015388985162
2017-04-08,"Madrid, Comunidad de Madrid 28003, Spain",Comunidad de Madrid,-0.013086248182113291,0.009955553986140796,Entire home/apt,-0.609286610075912,-0.42689989150122265,-0.38162674884839515,-0.08797109903969602,-0.16730519219599146,-1.6771911283109366
2017-04-08,"Madrid, Comunidad de Madrid, Spain",Comunidad de Madrid,-0.02062699299025294,0.011327400708900268,Private room,-0.609286610075912,-0.42689989150122265,-0.38162674884839515,-0.08797109903969602,-0.7947208880898193,-1.070512594869046
2017-04-08,"Madrid, Comunidad de Madrid 28002, Spain",Comunidad de Madrid,-0.010992926893021986,0.0131405340178229,Private room,-0.609286610075912,-0.42689989150122265,-0.38162674884839515,-0.08797109903969602,-0.7947208880898193,0.14284447201473516
2017-04-08,"Madrid, Comunidad de Madrid, Spain",Comunidad de Madrid,-0.011702723327352175,0.01606753359099002,Entire home/apt,0.344356945671412,-0.42689989150122265,0.7302288293064007,-0.08797109903969602,-0.16730519219599146,0.14284447201473516
2017-04-08,"Justicia, Madrid, Comunidad de Madrid 28004, Spain",Comunidad de Madrid,-0.01635540178685261,0.011355749477179546,Entire home/apt,0.344356945671412,-0.42689989150122265,-1.493482327003191,-0.08797109903969602,-0.16730519219599146,0.14284447201473516
2017-04-08,"Rios Rosas, Madrid, Community of Madrid 28003, Spain",Community of Madrid,-0.012577121454884946,0.011364585981096704,Entire home/apt,1.2980005014187361,1.0940306608401227,0.7302288293064007,-0.08797109903969602,-0.16730519219599146,1.3562015388985162
2017-04-08,"马德里, 马德里自治区 28035, Spain",马德里自治区,-0.007093718775980305,0.009394538040706718,Private room,-0.609286610075912,-0.42689989150122265,-0.38162674884839515,-0.08797109903969602,-0.16730519219599146,-1.6771911283109366
2017-03-15,"Binissalem-Mallorca DO, Balearic Islands 07350, Spain",Balearic Islands,-0.17259492181599537,0.47437833374119526,Entire home/apt,4.158931168660708,1.0940306608401227,2.953939985615992,-0.08797109903969602,2.5514961566772625,0.7495230054566258
2017-04-08,"Vallehermosa, Madrid, Comunidad de Madrid 28003, Spain",Comunidad de Madrid,-0.011211589827112624,0.010751407916753664,Entire home/apt,0.344356945671412,-0.42689989150122265,-0.38162674884839515,-0.08797109903969602,0.041833373101951156,-1.070512594869046
2017-04-08,"Malasaña, Madrid, Comunidad de Madrid 28004, Spain",Comunidad de Madrid,-0.015183698227546467,0.01105937672507456,Entire home/apt,-0.609286610075912,-0.42689989150122265,-0.38162674884839515,-0.08797109903969602,-0.16730519219599146,-1.070512594869046
2017-05-09,"Roma, Lazio 00185, Italy",Lazio,0.30129230018886644,1.1592002101518863,Private room,-0.13246483220225003,-0.42689989150122265,-0.38162674884839515,-0.08797109903969602,-0.16730519219599146,-1.070512594869046
2017-04-08,"Madrid, Comunidad de Madrid 28012, Spain",Comunidad de Madrid,-0.018858794636457,0.010771051257245881,Entire home/apt,1.2980005014187361,-0.42689989150122265,1.8420844074611964,0.6386465462016971,0.041833373101951156,1.3562015388985162
2016-08-08,"Rue de la Baillive, Genève, Genève 1205, Switzerland",Genève,1.2280208813903704,0.7076084622413498,Private room,-1.086108387949574,-0.42689989150122265,-0.38162674884839515,-0.08797109903969602,-0.16730519219599146,1.962880072340407
2017-04-08,"Madrid, Madrid 28005, Spain",Madrid,-0.017171470422702024,0.011001326778147084,Entire home/apt,-0.609286610075912,-0.42689989150122265,-0.38162674884839515,-0.33017698078682706,0.669249068995779,0.7495230054566258
2017-04-08,"Madrid, Comunidad de Madrid 28023, Spain",Comunidad de Madrid,-0.008335692490309696,0.005429431196626063,Private room,-1.086108387949574,1.0940306608401227,-0.38162674884839515,-0.08797109903969602,-0.16730519219599146,-1.070512594869046
2017-04-08,"Villaverde, Madrid, Comunidad de Madrid 28021, Spain",Comunidad de Madrid,-0.033261311378912695,0.010593936399299559,Private room,-1.086108387949574,-0.42689989150122265,-0.38162674884839515,-0.08797109903969602,-0.16730519219599146,-1.070512594869046
2017-05-09,"Haut Saint-Gilles, Saint-Gilles, Bruxelles 1060, Belgium",Bruxelles,2.2249095870835407,0.5809979993513444,Private room,-0.609286610075912,1.0940306608401227,-0.38162674884839515,-0.08797109903969602,-0.7947208880898193,1.962880072340407
2017-04-08,"Rios Rosas, Madrid, Comunidad de Madrid 28003, Spain",Comunidad de Madrid,-0.01214668004055745,0.011353576700174757,Private room,-1.086108387949574,-0.42689989150122265,-0.38162674884839515,-0.08797109903969602,-0.5855823227918767,-1.070512594869046
2017-04-08,"Madrid, Community of Madrid, Spain",Community of Madrid,-0.014373649784159661,0.010989299058969617,Private room,-1.086108387949574,-0.42689989150122265,-0.38162674884839515,-0.08797109903969602,-0.16730519219599146,-1.070512594869046
2017-04-08,"Argüelles, Madrid, Comunidad de Madrid 28008, Spain",Comunidad de Madrid,-0.015055359389243368,0.010156999981539955,Entire home/apt,-0.13246483220225003,-0.42689989150122265,-1.493482327003191,-0.00723580512398566,0.041833373101951156,0.7495230054566258
2017-04-08,"La Latina, Madrid, Comunidad de Madrid 28005, Spain",Comunidad de Madrid,-0.018298870300467878,0.010627673558278953,Entire home/apt,0.344356945671412,-0.42689989150122265,-0.38162674884839515,-0.08797109903969602,-0.37644375749393405,-0.46383406142715544
2017-04-08,"Sol, Madrid, Comunidad de Madrid 28013, Spain",Comunidad de Madrid,-0.01751207830142102,0.010774765686502149,Entire home/apt,0.344356945671412,-0.42689989150122265,-0.38162674884839515,-0.08797109903969602,0.2509719383998938,-0.46383406142715544
2017-04-08,"Castillejos, Madrid, Community of Madrid 28020, Spain",Community of Madrid,-0.00746166459758195,0.011394954493640214,Entire home/apt,-0.609286610075912,-0.42689989150122265,-0.38162674884839515,-0.5723828625339581,0.4601105036978364,0.7495230054566258
2017-04-08,"Embajadores, Madrid, Community of Madrid 28012, Spain",Community of Madrid,-0.018843806555752407,0.010912775499254618,Private room,-0.609286610075912,-0.42689989150122265,-0.38162674884839515,-0.7338534503653789,-0.16730519219599146,0.7495230054566258
2017-04-08,"La Latina, Madrid, Comunidad de Madrid 28005, Spain",Comunidad de Madrid,-0.018648049611555997,0.01062477411755739,Entire home/apt,0.821178723545074,1.0940306608401227,0.7302288293064007,-0.08797109903969602,2.760634721975205,0.7495230054566258
2017-04-08,"Madrid, Community of Madrid 28014, Spain",Community of Madrid,-0.017532708765548032,0.011455948538526163,Entire home/apt,0.344356945671412,-0.42689989150122265,-0.38162674884839515,-0.08797109903969602,0.041833373101951156,0.7495230054566258
2017-04-08,"Madrid, Comunidad de Madrid 28030, Spain",Comunidad de Madrid,-0.02031272050482423,0.014897096885539453,Private room,-1.086108387949574,-0.42689989150122265,-0.38162674884839515,-0.08797109903969602,-0.16730519219599146,0.14284447201473516
2017-04-08,"Argüelles, Madrid, Comunidad de Madrid 28008, Spain",Comunidad de Madrid,-0.014727860939780828,0.010032870692760874,Entire home/apt,-0.609286610075912,-0.42689989150122265,-1.493482327003191,-0.08797109903969602,1.9240804607834345,1.962880072340407
2017-04-08,"Justicia, Madrid, Comunidad de Madrid 28004, Spain",Comunidad de Madrid,-0.016438416826961254,0.011265802268760002,Private room,-0.609286610075912,-0.42689989150122265,-0.38162674884839515,-0.08797109903969602,-0.16730519219599146,-1.070512594869046
2017-04-08,"Sol, Madrid, Community of Madrid 28012, Spain",Community of Madrid,-0.01756874891985972,0.01097659371196545,Entire home/apt,0.821178723545074,-0.42689989150122265,-0.38162674884839515,-0.4512799216603926,-0.37644375749393405,0.14284447201473516
2017-04-08,"Vicálvaro, Madrid, Madrid 28032, Spain",Madrid,-0.01925857912907009,0.01740835015499158,Private room,-0.13246483220225003,-0.42689989150122265,-0.38162674884839515,-1.3958828604742037,-0.16730519219599146,1.3562015388985162
2017-04-08,"La Latina, Madrid, Comunidad de Madrid 28005, Spain",Comunidad de Madrid,-0.01828047491340204,0.010320443402819781,Private room,-1.086108387949574,1.0940306608401227,-0.38162674884839515,-0.08797109903969602,-0.16730519219599146,-1.070512594869046
2017-04-08,"La Latina, Madrid, Comunidad de Madrid 28012, Spain",Comunidad de Madrid,-0.01971267791571861,0.010921222557305515,Private room,-0.609286610075912,1.0940306608401227,-0.38162674884839515,-0.08797109903969602,-0.16730519219599146,-1.070512594869046
2017-04-08,"Cortes, Madrid, Comunidad de Madrid 28012, Spain",Comunidad de Madrid,-0.01722753855451218,0.011402884344285043,Private room,-0.609286610075912,-0.42689989150122265,-0.38162674884839515,-0.08797109903969602,-0.16730519219599146,-1.070512594869046
2017-04-08,"Madrid, Comunidad de Madrid 28023, Spain",Comunidad de Madrid,-0.01061240611362566,0.0056820852007235575,Private room,-0.609286610075912,-0.42689989150122265,-0.38162674884839515,-0.08797109903969602,-0.7947208880898193,-1.070512594869046
2017-04-08,"Gaztambide, Madrid, Comunidad de Madrid 28015, Spain",Comunidad de Madrid,-0.013636161092915888,0.009985301272102341,Private room,-0.609286610075912,-1.947830443842568,-0.38162674884839515,-0.08797109903969602,-0.16730519219599146,-0.46383406142715544
2017-04-08,"Madrid, Comunidad de Madrid 28005, Spain",Comunidad de Madrid,-0.018455230568109285,0.010218989727218889,Private room,-0.609286610075912,1.0940306608401227,-0.38162674884839515,-0.08797109903969602,-0.16730519219599146,0.14284447201473516
2017-04-08,"Justicia, Madrid, Madrid 28004, Spain",Madrid,-0.016704324911972664,0.011116617747792257,Entire home/apt,1.2980005014187361,-0.42689989150122265,-0.38162674884839515,0.3964406644545661,-0.16730519219599146,1.3562015388985162
2017-04-08,"Cortes, Madrid, Comunidad de Madrid 28014, Spain",Comunidad de Madrid,-0.01880077401235102,0.011577101482962506,Entire home/apt,-0.609286610075912,-0.42689989150122265,-1.493482327003191,-0.08797109903969602,-0.16730519219599146,-1.070512594869046
2017-04-08,"Carabanchel, Madrid, Comunidad de Madrid 28047, Spain",Comunidad de Madrid,-0.022775482317182124,0.008302895912174034,Entire home/apt,0.344356945671412,-0.42689989150122265,-0.38162674884839515,-0.08797109903969602,-0.37644375749393405,-1.070512594869046
2017-04-08,"Sol, Madrid, Comunidad de Madrid 28013, Spain",Comunidad de Madrid,-0.017558624930845933,0.010734351330259257,Entire home/apt,1.2980005014187361,1.0940306608401227,0.7302288293064007,-0.08797109903969602,0.4601105036978364,0.7495230054566258
2017-04-08,"La Latina, Madrid, Community of Madrid 28005, Spain",Community of Madrid,-0.01927297112129923,0.010556000090523487,Entire home/apt,0.344356945671412,-0.42689989150122265,0.7302288293064007,-0.08797109903969602,-0.16730519219599146,0.7495230054566258
2017-04-08,"Madrid, Community of Madrid 28025, Spain",Community of Madrid,-0.023791992614316863,0.00898214958466533,Private room,-1.086108387949574,-0.42689989150122265,-0.38162674884839515,-0.08797109903969602,-0.16730519219599146,-1.070512594869046
2017-04-08,"Embajadores, Madrid, Community of Madrid 28012, Spain",Community of Madrid,-0.01890592488080928,0.010989510323909792,Entire home/apt,0.344356945671412,-0.42689989150122265,-1.493482327003191,-0.08797109903969602,-0.37644375749393405,0.7495230054566258
2017-04-08,"Cortes, Madrid, Comunidad de Madrid 28014, Spain",Comunidad de Madrid,-0.018371104926577776,0.011398388906022155,Entire home/apt,-0.609286610075912,-0.42689989150122265,-0.38162674884839515,-0.08797109903969602,-0.37644375749393405,-1.070512594869046
2017-04-08,"Madrid, Comunidad de Madrid 28012, Spain",Comunidad de Madrid,-0.019496895887340156,0.011273340583747616,Private room,-1.086108387949574,-0.42689989150122265,-0.38162674884839515,-0.08797109903969602,-0.9620317403281734,-1.6771911283109366
2017-04-08,"Sol, Madrid, Madrid 28013, Spain",Madrid,-0.017378279983001357,0.01066917616838881,Private room,-1.086108387949574,5.656822317864159,-0.38162674884839515,0.05412301825195421,-0.16730519219599146,-0.46383406142715544
2017-04-08,"Madrid, Community of Madrid, Spain",Community of Madrid,-0.017809840121259555,0.010680311384652983,Entire home/apt,1.2980005014187361,-0.42689989150122265,-0.38162674884839515,-0.08797109903969602,-0.16730519219599146,-0.46383406142715544
2017-04-08,"Gaztambide, Madrid, Comunidad de Madrid 28015, Spain",Comunidad de Madrid,-0.013755987349259648,0.010102914306420019,Entire home/apt,0.344356945671412,-0.42689989150122265,-0.38162674884839515,-0.08797109903969602,-0.16730519219599146,-1.070512594869046
2017-04-08,"Embajadores, Madrid, Comunidad de Madrid 28012, Spain",Comunidad de Madrid,-0.019553186685697742,0.011326338804091974,Entire home/apt,1.7748222792923982,-0.42689989150122265,1.8420844074611964,-0.08797109903969602,-0.16730519219599146,-1.070512594869046
2017-04-08,"Madrid, Comunidad de Madrid, Spain",Comunidad de Madrid,-0.014540669427964814,0.01095924983383043,Entire home/apt,-0.13246483220225003,-0.42689989150122265,-0.38162674884839515,-0.08797109903969602,-0.37644375749393405,-1.070512594869046
2017-04-08,"Prosperidad, Madrid, Comunidad de Madrid 28002, Spain",Comunidad de Madrid,-0.011652714836159622,0.01311681303992023,Private room,-1.086108387949574,-0.42689989150122265,-0.38162674884839515,-0.08797109903969602,-0.16730519219599146,0.14284447201473516
2017-04-08,"Cortes, Madrid, Madrid 28012, Spain",Madrid,-0.017817258148710078,0.011116466139190208,Entire home/apt,0.344356945671412,-0.42689989150122265,-0.38162674884839515,-0.08797109903969602,-0.16730519219599146,1.962880072340407
2017-04-08,"La Latina, Madrid, Comunidad de Madrid 28012, Spain",Comunidad de Madrid,-0.01853309052491468,0.010738571867037363,Entire home/apt,2.2516440571660605,1.0940306608401227,0.7302288293064007,-0.08797109903969602,0.8783876342937216,0.7495230054566258
2017-04-08,"Justicia, Madrid, Comunidad de Madrid 28004, Spain",Comunidad de Madrid,-0.01588415769597557,0.011148956338656734,Private room,-0.609286610075912,-0.42689989150122265,-0.38162674884839515,-0.08797109903969602,0.041833373101951156,0.7495230054566258
2017-04-08,"Madrid, Comunidad de Madrid 28012, Spain",Comunidad de Madrid,-0.0201037694072739,0.011435000834177755,Private room,-1.086108387949574,-0.42689989150122265,-0.38162674884839515,-0.08797109903969602,-0.16730519219599146,-1.070512594869046
2017-04-08,"Trafalgar, Madrid, Comunidad de Madrid 28010, Spain",Comunidad de Madrid,-0.013593213430343094,0.011029434462899399,Private room,-0.609286610075912,-0.42689989150122265,-0.38162674884839515,-0.08797109903969602,-0.16730519219599146,-1.070512594869046
2017-04-08,"Ciudad Lineal, Madrid, Comunidad de Madrid 28033, Spain",Comunidad de Madrid,-0.003433984433752884,0.013847622020803885,Private room,-0.609286610075912,-0.42689989150122265,-0.38162674884839515,-0.08797109903969602,0.041833373101951156,-1.070512594869046
2017-04-08,"Madrid, Comunidad de Madrid 28005, Spain",Comunidad de Madrid,-0.018767231867142235,0.00988893822772419,Private room,-0.609286610075912,-0.42689989150122265,-0.38162674884839515,-0.08797109903969602,-0.16730519219599146,-0.46383406142715544
2017-04-08,"Estrella, Madrid, Comunidad de Madrid 28007, Spain",Comunidad de Madrid,-0.01731044790810674,0.013673034126753258,Private room,0.344356945671412,1.0940306608401227,1.8420844074611964,-0.08797109903969602,-0.16730519219599146,0.14284447201473516
2017-04-08,"Trafalgar, Madrid, Community of Madrid 28010, Spain",Community of Madrid,-0.013632840726996179,0.011075741461822974,Entire home/apt,-0.609286610075912,-0.42689989150122265,-1.493482327003191,0.21720831196168913,-0.16730519219599146,0.7495230054566258
2017-04-08,"Justicia, Madrid, Comunidad de Madrid 28004, Spain",Comunidad de Madrid,-0.016362451836679903,0.011314549305186819,Private room,-0.609286610075912,1.0940306608401227,-0.38162674884839515,-0.08797109903969602,-0.16730519219599146,-1.070512594869046
2017-04-08,"Madrid, Comunidad de Madrid 28004, Spain",Comunidad de Madrid,-0.015256799946094652,0.010782612586752739,Entire home/apt,-0.609286610075912,-0.42689989150122265,-1.493482327003191,-0.08797109903969602,-0.16730519219599146,0.7495230054566258
2017-03-15,"Manacor, Illes Balears 07689, Spain",Illes Balears,-0.20407819211188583,0.5039673652365945,Entire home/apt,1.2980005014187361,1.0940306608401227,1.8420844074611964,-0.08797109903969602,-0.16730519219599146,0.7495230054566258
2017-04-08,"Embajadores, Madrid, Community of Madrid 28012, Spain",Community of Madrid,-0.018999442555541302,0.010967107971700224,Private room,-0.609286610075912,-0.42689989150122265,-0.38162674884839515,-0.08797109903969602,-0.16730519219599146,0.14284447201473516
2017-04-08,"Barajas, Madrid, Comunidad de Madrid 28042, Spain",Comunidad de Madrid,-0.009755117342563372,0.019041172154179557,Entire home/apt,0.821178723545074,0.33356538466945,0.7302288293064007,0.8001171340331179,0.8783876342937216,0.14284447201473516
2017-04-08,"Madrid, Comunidad de Madrid 28015, Spain",Comunidad de Madrid,-0.015480130459687482,0.010340960378920197,Private room,-0.609286610075912,-0.42689989150122265,-0.38162674884839515,-0.08797109903969602,-0.16730519219599146,0.14284447201473516
2017-04-08,"Madrid, Comunidad de Madrid 28004, Spain",Comunidad de Madrid,-0.016773781144881587,0.011245407100264093,Private room,-0.609286610075912,-0.42689989150122265,-0.38162674884839515,-0.08797109903969602,-0.16730519219599146,-1.070512594869046
2017-04-08,"Madrid, Comunidad de Madrid, Spain",Comunidad de Madrid,-0.018456094922726814,0.010539617771379487,Private room,-0.609286610075912,1.0940306608401227,-0.38162674884839515,-0.08797109903969602,-0.16730519219599146,-0.46383406142715544
2017-04-08,"Madrid, Comunidad de Madrid 28025, Spain",Comunidad de Madrid,-0.024048930232507395,0.008487343033547739,Entire home/apt,0.344356945671412,-0.42689989150122265,1.8420844074611964,0.3157053705388558,0.4601105036978364,-0.46383406142715544
2017-04-08,"Palos do Moguer, Madrid, Comunidad de Madrid 28045, Spain",Comunidad de Madrid,-0.020699807641181917,0.011431443109168207,Entire home/apt,0.344356945671412,-0.42689989150122265,-0.38162674884839515,-0.41091227470253744,-0.37644375749393405,-0.46383406142715544
2017-04-08,"Cortes, Madrid, Comunidad de Madrid 28014, Spain",Comunidad de Madrid,-0.018558482902992647,0.011581663536634612,Entire home/apt,0.821178723545074,-0.42689989150122265,-0.38162674884839515,-0.00723580512398566,-0.5855823227918767,0.7495230054566258
2017-04-08,"Tetuán, Madrid, Comunidad de Madrid 28039, Spain",Comunidad de Madrid,-0.008453151977442178,0.010492137169214112,Entire home/apt,1.2980005014187361,-0.42689989150122265,1.8420844074611964,-0.08797109903969602,0.041833373101951156,-0.46383406142715544
2017-04-08,"Madrid, Comunidad de Madrid 28008, Spain",Comunidad de Madrid,-0.015147890048358413,0.010194208257893361,Entire home/apt,0.344356945671412,-0.42689989150122265,0.7302288293064007,0.36414654688828196,-0.5855823227918767,0.14284447201473516
2017-04-08,"La Latina, Madrid, Comunidad de Madrid 28005, Spain",Comunidad de Madrid,-0.018607756208022942,0.010676233779053402,Entire home/apt,-0.609286610075912,-0.42689989150122265,-0.38162674884839515,-0.08797109903969602,0.041833373101951156,-1.070512594869046
2017-04-08,"Cortes, Madrid, Comunidad de Madrid 28005, Spain",Comunidad de Madrid,-0.01919051447812874,0.010342482228034387,Entire home/apt,0.344356945671412,-0.42689989150122265,-0.38162674884839515,-0.08797109903969602,0.8783876342937216,-0.46383406142715544
2017-04-08,"La Latina, Madrid, Comunidad de Madrid 28005, Spain",Comunidad de Madrid,-0.01840011132578734,0.010558603654717816,Entire home/apt,0.344356945671412,-0.42689989150122265,-0.38162674884839515,-0.08797109903969602,0.2509719383998938,-1.070512594869046
2017-04-08,"Madrid, Comunidad de Madrid 28005, Spain",Comunidad de Madrid,-0.018714289682891013,0.010246237116275909,Entire home/apt,2.2516440571660605,0.33356538466945,-0.38162674884839515,2.011146542768773,0.8783876342937216,-0.46383406142715544
2017-04-08,"Valdeacederas, Madrid, Comunidad de Madrid 28029, Spain",Comunidad de Madrid,-0.00652025463713143,0.010942336334464968,Private room,-0.609286610075912,1.0940306608401227,-0.38162674884839515,-0.08797109903969602,-0.16730519219599146,-0.46383406142715544
2017-04-08,"Madrid, Comunidad de Madrid 28054, Spain",Comunidad de Madrid,-0.027277650399851677,0.006552562936280645,Private room,-0.609286610075912,-0.42689989150122265,-0.38162674884839515,-0.08797109903969602,-0.16730519219599146,-0.46383406142715544
2017-04-08,"Usera, Madrid, Comunidad de Madrid 28041, Spain",Comunidad de Madrid,-0.026649023780579876,0.011664458533947446,Private room,-1.086108387949574,-0.42689989150122265,-0.38162674884839515,-0.08797109903969602,-1.0038594533877618,-1.070512594869046
2017-04-08,"Embajadores, Madrid, Community of Madrid 28012, Spain",Community of Madrid,-0.018768222228680104,0.011480670004417853,Entire home/apt,1.2980005014187361,0.33356538466945,1.8420844074611964,1.5267347792745112,0.041833373101951156,1.962880072340407
2017-05-04,"Crown Heights, Brooklyn, NY 11216, United States",NY,0.03886166627299714,-4.963251619142424,Private room,-0.609286610075912,-0.42689989150122265,-0.38162674884839515,0.2349700766231454,-0.7947208880898193,0.14284447201473516
2017-04-08,"Madrid, Comunidad de Madrid 28015, Spain",Comunidad de Madrid,-0.014773560195451457,0.010216029849515917,Private room,-0.609286610075912,-1.1873651676718953,-0.38162674884839515,-0.08797109903969602,-0.16730519219599146,-0.46383406142715544
2017-04-08,"Puente de Vallecas, Madrid, Comunidad de Madrid 28053, Spain",Comunidad de Madrid,-0.024456941839014965,0.01330307292432015,Private room,0.344356945671412,-0.42689989150122265,-0.38162674884839515,-0.08797109903969602,-0.16730519219599146,-1.070512594869046
2017-04-08,"Madrid, Comunidad de Madrid 28011, Spain",Comunidad de Madrid,-0.01858467653527225,0.009546487578991973,Private room,-0.13246483220225003,-0.42689989150122265,-0.38162674884839515,-0.08797109903969602,-0.16730519219599146,-1.070512594869046
2017-04-08,"Castellana, Madrid, Comunidad de Madrid 28006, Spain",Comunidad de Madrid,-0.014472847756610284,0.012097721478765106,Private room,-0.609286610075912,-0.42689989150122265,-0.38162674884839515,-0.08797109903969602,-0.16730519219599146,0.7495230054566258
2017-04-08,"Malasaña, Madrid, Madrid 28004, Spain",Madrid,-0.016135209944132926,0.010979535284232862,Private room,1.2980005014187361,5.656822317864159,-0.38162674884839515,-1.218265213859641,-0.16730519219599146,1.962880072340407
2017-04-08,"Madrid, Comunidad de Madrid 28053, Spain",Comunidad de Madrid,-0.02293410514111729,0.014972251307897904,Private room,-1.086108387949574,-0.42689989150122265,-0.38162674884839515,-0.08797109903969602,-0.16730519219599146,-1.070512594869046
2017-04-08,"Madrid, Comunidad de Madrid 28033, Spain",Comunidad de Madrid,-0.004407685768379218,0.0137643212745407,Private room,-1.086108387949574,-0.42689989150122265,-0.38162674884839515,-0.08797109903969602,-0.9620317403281734,0.14284447201473516
2017-04-08,"Madrid, Comunidad de Madrid 28004, Spain",Comunidad de Madrid,-0.015504160399092339,0.011261783748539606,Entire home/apt,0.344356945671412,-0.42689989150122265,-0.38162674884839515,-0.08797109903969602,-0.37644375749393405,1.3562015388985162
2017-05-09,"Colonna, Roma, Lazio 00187, Italy",Lazio,0.3029546768183033,1.1572489711749783,Entire home/apt,4.158931168660708,2.614961213181468,1.8420844074611964,-0.08797109903969602,0.4601105036978364,-0.46383406142715544
2017-04-08,"Embajadores, Madrid, Comunidad de Madrid 28012, Spain",Comunidad de Madrid,-0.018937065907759548,0.01161772438079385,Private room,-0.609286610075912,-0.42689989150122265,-0.38162674884839515,-0.8145887442810892,-0.16730519219599146,0.7495230054566258
2017-04-08,"Cortes, Madrid, Comunidad de Madrid 28014, Spain",Comunidad de Madrid,-0.018162456667675273,0.011233096695598917,Entire home/apt,1.2980005014187361,1.0940306608401227,0.7302288293064007,-0.08797109903969602,5.660042362632225e-06,1.3562015388985162
2017-04-08,"Cortes, Madrid, Comunidad de Madrid 28012, Spain",Comunidad de Madrid,-0.017761809733282143,0.011151048386772536,Entire home/apt,-0.609286610075912,1.0940306608401227,-0.38162674884839515,-0.08797109903969602,2.9697732872731475,1.962880072340407
2017-04-08,"La Latina, Madrid, Comunidad de Madrid 28005, Spain",Comunidad de Madrid,-0.01826556010082801,0.01041132108318501,Entire home/apt,1.2980005014187361,-0.42689989150122265,-0.38162674884839515,-0.08797109903969602,0.041833373101951156,-1.070512594869046
2017-04-08,"Hospitalet de Llobregat, CT 08903, Spain",CT,0.18941175734480634,0.4234381902980455,Entire home/apt,0.344356945671412,-0.42689989150122265,-0.38162674884839515,-0.6369710976665264,0.041833373101951156,0.7495230054566258
2017-03-05,"Landor Road, London, England SW9 9JB, United Kingdom",England,2.363301408396269,0.2644701724361113,Entire home/apt,0.344356945671412,-0.42689989150122265,-0.38162674884839515,-0.08797109903969602,0.041833373101951156,1.3562015388985162
2017-04-08,"Almenara, Madrid, Comunidad de Madrid, Spain",Comunidad de Madrid,-0.005255289804935586,0.01200813813474469,Private room,-0.609286610075912,1.0940306608401227,-0.38162674884839515,-0.08797109903969602,-0.16730519219599146,0.14284447201473516
2017-04-08,"Embajadores, Madrid, Comunidad de Madrid 28012, Spain",Comunidad de Madrid,-0.018386530125367163,0.011071030321809122,Entire home/apt,2.2516440571660605,-0.42689989150122265,1.8420844074611964,-0.08797109903969602,1.714941895485492,0.14284447201473516
2017-04-08,"Madrid, Comunidad de Madrid, Spain",Comunidad de Madrid,-0.012890853456454921,0.011589816243616153,Entire home/apt,0.821178723545074,-0.42689989150122265,1.8420844074611964,-0.08797109903969602,1.714941895485492,0.14284447201473516
2017-04-08,"Palacio, Madrid, Comunidad de Madrid 28013, Spain",Comunidad de Madrid,-0.017712006822800542,0.010469187833052767,Entire home/apt,0.344356945671412,1.0940306608401227,0.7302288293064007,5.240558299397187,0.4601105036978364,-0.46383406142715544
2017-04-08,"Madrid, Comunidad de Madrid 28019, Spain",Comunidad de Madrid,-0.022307532758127125,0.009670237091105115,Private room,-0.609286610075912,-0.42689989150122265,-0.38162674884839515,-1.3958828604742037,-1.0038594533877618,0.14284447201473516
2017-04-08,"La Latina, Madrid, 28 28005, Spain",28,-0.01888206542743482,0.010382936677828001,Entire home/apt,1.2980005014187361,1.0940306608401227,0.7302288293064007,-0.08797109903969602,0.4601105036978364,1.3562015388985162
2017-04-08,"Embajadores, Madrid, Comunidad de Madrid 28012, Spain",Comunidad de Madrid,-0.01921591659196618,0.011263636904849435,Entire home/apt,-0.609286610075912,-0.42689989150122265,-1.493482327003191,-0.08797109903969602,-0.7947208880898193,-0.46383406142715544
2017-04-08,"Castilla, Madrid, Comunidad de Madrid 28036, Spain",Comunidad de Madrid,-0.005940629855503495,0.01215085447812696,Entire home/apt,-0.609286610075912,-0.42689989150122265,-0.38162674884839515,-0.08797109903969602,-0.5855823227918767,0.14284447201473516
2017-04-08,"Ciudad Jardin, Madrid, Comunidad de Madrid 28002, Spain",Comunidad de Madrid,-0.010720958810490398,0.013306720887538858,Entire home/apt,-1.086108387949574,-0.42689989150122265,-0.38162674884839515,-0.08797109903969602,-0.7947208880898193,1.3562015388985162
2017-04-08,"Madrid, Comunidad de Madrid 28015, Spain",Comunidad de Madrid,-0.014178126249013831,0.010284815057920437,Private room,-1.086108387949574,1.0940306608401227,-0.38162674884839515,-1.3474416841247776,-0.16730519219599146,-1.070512594869046
2017-04-08,"Embajadores, Madrid, Comunidad de Madrid 28012, Spain",Comunidad de Madrid,-0.018653372247680076,0.011362019928501344,Entire home/apt,1.2980005014187361,-0.42689989150122265,0.7302288293064007,-0.08797109903969602,-0.37644375749393405,-1.070512594869046
2017-04-08,"Madrid, Comunidad de Madrid 28005, Spain",Comunidad de Madrid,-0.018710102845661408,0.010665237279137518,Entire home/apt,-0.609286610075912,-0.42689989150122265,-1.493482327003191,-0.08797109903969602,-0.7947208880898193,-0.46383406142715544
2017-04-08,"Argüelles, Madrid, Comunidad de Madrid 28008, Spain",Comunidad de Madrid,-0.01595080174471001,0.010127562503611066,Private room,-0.609286610075912,-0.42689989150122265,-0.38162674884839515,-0.08797109903969602,-0.16730519219599146,-1.6771911283109366
2017-04-08,"Madrid, Community of Madrid, Spain",Community of Madrid,-0.00962415815769527,0.011051075285609543,Entire home/apt,-0.609286610075912,-0.42689989150122265,-0.38162674884839515,-0.08797109903969602,-0.5855823227918767,-0.46383406142715544
2017-04-08,"Malasaña, Madrid, Comunidad de Madrid 28004, Spain",Comunidad de Madrid,-0.01597243893419887,0.010804271982033764,Private room,-1.086108387949574,1.0940306608401227,-0.38162674884839515,-0.08797109903969602,-0.7947208880898193,-1.070512594869046
2017-04-08,"Embajadores, Madrid, Community of Madrid 28012, Spain",Community of Madrid,-0.019716737630731628,0.011164374464933739,Entire home/apt,-0.13246483220225003,-0.42689989150122265,-0.38162674884839515,-0.08797109903969602,-0.16730519219599146,0.14284447201473516
2017-04-08,"Sol, Madrid, Community of Madrid 28005, Spain",Community of Madrid,-0.01778252687753642,0.01070156111037649,Entire home/apt,-0.609286610075912,-0.42689989150122265,-0.38162674884839515,0.15423478270743504,-0.37644375749393405,0.7495230054566258
2017-04-08,"Malasaña, Madrid, Comunidad de Madrid 28004, Spain",Comunidad de Madrid,-0.015265199270094107,0.010894747475323003,Private room,-0.13246483220225003,-0.42689989150122265,-0.38162674884839515,-0.08797109903969602,-0.5855823227918767,-0.46383406142715544
2017-04-08,"Malasaña, Madrid, Comunidad de Madrid 28004, Spain",Comunidad de Madrid,-0.015691576181760626,0.010833780858734056,Entire home/apt,1.7748222792923982,1.0940306608401227,1.8420844074611964,2.0918818366844834,1.5058033301875493,1.962880072340407
2017-04-08,"Prosperidad, Madrid, Comunidad de Madrid 28002, Spain",Comunidad de Madrid,-0.011702441681168633,0.013097878171814003,Private room,-1.086108387949574,-0.42689989150122265,-0.38162674884839515,-0.08797109903969602,-0.16730519219599146,-0.46383406142715544
2017-04-08,"Cortes, Madrid, Comunidad de Madrid 28012, Spain",Comunidad de Madrid,-0.018131198487642282,0.011170877829576051,Entire home/apt,0.821178723545074,1.0940306608401227,-0.38162674884839515,-0.08797109903969602,0.8783876342937216,0.14284447201473516
2017-04-08,"Argüelles, Madrid, Comunidad de Madrid 28008, Spain",Comunidad de Madrid,-0.016175972547787604,0.009596462365133129,Entire home/apt,-0.609286610075912,-0.42689989150122265,-0.38162674884839515,-0.08797109903969602,-0.16730519219599146,-1.070512594869046
2017-04-08,"Madrid, Comunidad de Madrid 28017, Spain",Comunidad de Madrid,-0.015586711236817699,0.014238100330660152,Private room,-0.609286610075912,1.0940306608401227,-0.38162674884839515,-0.08797109903969602,-0.16730519219599146,-1.070512594869046
2017-04-08,"Argüelles, Madrid, Comunidad de Madrid 28008, Spain",Comunidad de Madrid,-0.016109678565835204,0.009450461098114404,Entire home/apt,0.344356945671412,1.8544959370107952,0.7302288293064007,-0.08797109903969602,0.2509719383998938,0.7495230054566258
2017-04-08,"Lista, Madrid, Comunidad de Madrid 28006, Spain",Comunidad de Madrid,-0.01438247952814213,0.013022286680292485,Entire home/apt,2.2516440571660605,1.0940306608401227,0.7302288293064007,-0.08797109903969602,1.2966647648896068,0.14284447201473516
2017-04-08,"Embajadores, Madrid, Comunidad de Madrid 28012, Spain",Comunidad de Madrid,-0.01919503865719573,0.011202831770292502,Entire home/apt,-0.13246483220225003,-0.42689989150122265,-0.38162674884839515,-0.08797109903969602,-0.8783763142089963,-1.070512594869046
2017-04-08,"Madrid, Comunidad de Madrid 28004, Spain",Comunidad de Madrid,-0.015884300689403715,0.011334872194807775,Private room,-1.086108387949574,-0.42689989150122265,-0.38162674884839515,-0.08797109903969602,-1.0038594533877618,0.7495230054566258
2017-04-08,"Malasaña, Madrid, Community of Madrid 28015, Spain",Community of Madrid,-0.015069066258101534,0.010494686398490835,Entire home/apt,0.821178723545074,-0.42689989150122265,-0.38162674884839515,0.7597494870752627,-0.16730519219599146,1.3562015388985162
2017-04-08,"Justicia, Madrid, Community of Madrid 28004, Spain",Community of Madrid,-0.01602764857015135,0.011201436322432853,Private room,-0.609286610075912,2.614961213181468,-0.38162674884839515,-0.08797109903969602,-0.5855823227918767,0.14284447201473516
2017-04-08,"Madrid, Community of Madrid 28004, Spain",Community of Madrid,-0.014921593726399777,0.011582183733409251,Private room,-0.609286610075912,7.177752870205504,-0.38162674884839515,-0.16870639295540638,-0.16730519219599146,0.14284447201473516
2017-04-04,"Woolloomooloo, NSW 2011, Australia",NSW,-16.02329987428138,10.98068836609897,Entire home/apt,-0.609286610075912,-0.42689989150122265,-0.38162674884839515,-0.08797109903969602,-0.16730519219599146,0.7495230054566258
2017-04-08,"Justicia, Madrid, Madrid 28004, Spain",Madrid,-0.01648521476481888,0.01118958624374994,Entire home/apt,2.2516440571660605,1.0940306608401227,1.8420844074611964,3.787323008914401,2.133219026081377,2.5695586057822974
2017-04-08,"Malasaña, Madrid, Comunidad de Madrid 28015, Spain",Comunidad de Madrid,-0.015240915047970422,0.010511759518029401,Entire home/apt,0.821178723545074,-0.42689989150122265,0.7302288293064007,-0.08797109903969602,-0.16730519219599146,0.14284447201473516
2017-04-08,"Palacio, Madrid, Community of Madrid 28013, Spain",Community of Madrid,-0.01612197311725823,0.01048490773695039,Entire home/apt,2.2516440571660605,1.0940306608401227,1.8420844074611964,-0.08797109903969602,0.041833373101951156,0.7495230054566258
2017-04-08,"Ciudad Lineal, Madrid, Comunidad de Madrid 28017, Spain",Comunidad de Madrid,-0.015653697319851518,0.01591398643793023,Entire home/apt,1.2980005014187361,1.0940306608401227,1.8420844074611964,-0.08797109903969602,-0.37644375749393405,-0.46383406142715544
2017-04-08,"Madrid, Comunidad de Madrid 28005, Spain",Comunidad de Madrid,-0.018511282711732104,0.010502759500682073,Private room,-0.609286610075912,-0.42689989150122265,-0.38162674884839515,-0.08797109903969602,-0.16730519219599146,0.14284447201473516
2017-04-08,"Justicia, Madrid, Comunidad de Madrid 28004, Spain",Comunidad de Madrid,-0.016483524722619925,0.011165472941935824,Private room,-0.609286610075912,-0.42689989150122265,-0.38162674884839515,-0.08797109903969602,-0.16730519219599146,0.7495230054566258
